Number,Name,Address,Latitude,Longitude,Banking,Bonus,Status,Contract Name,Bike Stands,Available Bike Stands,Available Bikes,Last Update Date,Last Update - Time
1,Saint Pierre,Rue Eloi Morel angle bd baraban,49.901646,2.303244,False,False,Open,Amiens,20,16,0,09-06-2025,13:11:37
1,Jardines De Pereda,Jardines de Pereda (Aprox. Correos y Castelar),43.461719,-3.8021,True,False,Closed,Santander,40,36,4,17-01-2024,13:59:16
1,Lattre De Tassigny,AVENUE DU MARECHAL DE LATTRE DE TASSIGNY,48.7988351,2.453876338,True,False,Open,Creteil,26,26,0,20-05-2024,11:11:59
1,Woostower,Borne Evčnementielle n°1,45.72463042,4.829194816,False,False,Open,Lyon,6,0,0,15-07-2025,13:11:26
1,Theatre Des Arts,DEVANT N°7 BIS RUE JEANNE D'ARC,49.43952415,1.08880495,True,False,Closed,Rouen,25,2,0,03-07-2023,13:27:37
1,Parvis De La Gare,Avenue du GEnEral Leclerc,47.742424,7.342152,True,False,Closed,Mulhouse,40,39,0,26-03-2025,11:48:54
1,Glorieta Olimpica,GLORIETA OLIMPICA - Aprox. Concejal Alberto JimEnez-Becerril,37.41292355,-5.988905938,False,False,Open,Seville,20,17,3,12-11-2025,14:49:46
1,Guillendecastro,C/GUILLEM DE CASTRO esquina con C/NA JORDANA,39.48001,-0.38302,False,False,Open,Valence,25,21,4,12-11-2025,14:53:53
1,Leon Xiii,LEON XIII-RUE DE BONNEVOIE ( DEVANT N° 103 ),49.598211,6.137526,False,False,Open,Luxembourg,20,19,1,12-11-2025,14:54:50
1,Octave Henry,001 - OCTAVE HENRY - RUE DE GEMBLOUX / HALL OMNISPORT,50.47536,4.84661,False,False,Open,Namur,15,8,7,12-11-2025,14:51:54
1,Poids De L'Huile,12 RUE DU POIDS DE L'HUILE,43.60419,1.445475,False,False,Open,Toulouse,19,1,18,12-11-2025,14:57:16
1,Prefecture,Place du Port Communeau,47.21983982,-1.554891341,True,False,Open,Nantes,33,28,4,12-11-2025,14:56:50
1,Leopold Ii,LEOPOLD II - AVENUE DE TERVUREN FACE / TERVURENLAAN VOOR 218,50.836304,4.41505,False,True,Open,Bruxelles-Capitale,20,8,12,12-11-2025,14:55:42
1,Dominicains  Fourier,Angle rue Pierre FOURIER et rue des Dominicains,48.69246545,6.183400554,True,False,Open,Nancy,25,7,18,12-11-2025,14:50:09
1,Gare Viotte,GARE VIOTTE Parc des Glacis - EntrEe Avenue de la Paix,47.246419,6.022567,True,True,Open,Besancon,30,16,14,12-11-2025,14:54:19
1,Arkikatedra,Šventaragio g.,54.68590826,25.28560002,False,False,Closed,Vilnius,21,0,0,12-11-2025,14:55:47
2,Pasteur  Fac De Droit,AVENUE PASTEUR,49.44428497,1.078383026,True,False,Closed,Rouen,20,20,0,03-07-2023,13:29:43
2,Les Halles,Rue J Natiere,49.89603239,2.295043975,False,False,Closed,Amiens,20,18,0,01-07-2025,00:55:42
2,Hopital Intercommunal,AVENUE DE VERDUN,48.79617363,2.463706246,True,False,Open,Creteil,22,9,4,09-12-2023,14:54:02
2,Republique,3 Place de la REpublique,47.74596072,7.341412568,True,False,Closed,Mulhouse,14,14,0,08-04-2025,11:27:00
2,Plaza De Las Brisas,Plaza de las Brisas (Aprox. Jardines de Piquio),43.47441267,-3.785781345,True,False,Closed,Santander,20,20,0,17-01-2024,14:39:18
2,Gran Plaza,GRAN PLAZA - Aprox. Calle Marquez de Pickman,37.38157805,-5.965223966,False,False,Open,Seville,18,0,0,24-04-2025,14:01:35
2,Callesalvadorginercallemuseo,Salvador Giner - C. Museo,39.47985713,-0.379839115,False,False,Open,Valence,15,14,1,12-11-2025,14:49:09
2,Eloy,ELOY - Rue Eloy / Eloystraat,50.836151,4.326019,False,False,Open,Bruxelles-Capitale,25,16,7,12-11-2025,14:48:24
2,Croix Du Feu,002 - CROIX DU FEU - AV DES CROIX DU FEU / RUE MUZET FACE N°7,50.470692,4.852803,False,False,Open,Namur,15,6,9,12-11-2025,14:55:15
2,Lafayette,21 RUE LAFAYETTE,43.604885,1.445306,True,False,Open,Toulouse,24,1,21,12-11-2025,14:56:18
2,Place De La Carriere,Angle Place de la Carričre et rue des MarEchaux,48.69459816,6.182294086,False,False,Open,Nancy,16,9,6,12-11-2025,14:55:25
2,Barboros Radvilaites,Pilies g. – RadvilaitEs g. sankryZa,54.68447055,25.28936958,False,False,Closed,Vilnius,21,21,0,12-11-2025,14:56:03
2,Hôtel De Ville,"29, rue de Strasbourg",47.21857181,-1.55348429,False,False,Open,Nantes,20,18,2,12-11-2025,14:52:18
2,Remparts,Rue Battant (au niveau du Square Bouchot),47.243497,6.021877,False,False,Open,Besancon,10,3,7,12-11-2025,14:53:57
2,Gare Centrale,GARE CENTRALE 2 - PLACE DE LA GARE N°3-5,49.601051,6.133744,False,False,Open,Luxembourg,21,18,0,12-11-2025,14:57:29
3,Rue Du General Leclerc  Centre Ancien,En face du 1 ter rue de joly,48.79078862,2.464890185,True,False,Open,Creteil,24,13,9,02-05-2024,05:01:57
3,Vieux Marche,PLACE DU VIEUX MARCHE,49.44340062,1.089234065,True,False,Open,Rouen,24,0,0,09-05-2023,13:04:52
3,Place De La Concorde,Place de la Concorde / Angle rue de l'Arsenal,47.746818,7.335238,False,False,Closed,Mulhouse,12,12,0,03-04-2025,11:45:49
3,Vogel,Bd du jardin des plantes,49.89812439,2.295195128,False,False,Open,Amiens,20,20,0,10-06-2025,12:58:48
3,Parque Las Llamas,Parque las Llamas (Aprox. Palacio de Deportes),43.47573226,-3.798063871,True,False,Open,Santander,20,0,0,18-12-2023,12:38:33
3,Strasbourg,"4, rue des CarmElites - Place Tirant Lo Blanc",47.21682,-1.551979,False,False,Open,Nantes,15,13,2,12-11-2025,14:54:03
3,Alsacelorraine  Pomme,62 RUE DE LA POMME,43.603302,1.445454,False,False,Open,Toulouse,18,1,17,12-11-2025,14:56:14
3,Puerta De La Barqueta,PUERTA DE LA BARQUETA - Aprox. Puente de la Barqueta,37.40564154,-5.998488241,False,False,Open,Seville,40,29,11,12-11-2025,14:52:30
3,Battant,Rue de la Madeleine- Face ŕ la rue de l'Ecole,47.239978,6.019691,True,False,Open,Besancon,15,12,3,12-11-2025,14:57:06
3,Porte De Flandre ,PORTE DE FLANDRE/VLAAMSEPOORT - BLD DE NIEUPORT/NIEUWPOORTLAAN 1,50.853203,4.341823,False,False,Open,Bruxelles-Capitale,21,7,12,12-11-2025,14:55:52
3,Stroossbuerger Plaz,"17 Rue du Commerce ,Face 19",49.600415,6.129234,False,False,Open,Luxembourg,20,14,2,12-11-2025,14:54:58
3,Plazamusicolopezchavarri,Plaza del Musico López Chavarri,39.47680312,-0.380379115,False,False,Open,Valence,20,19,0,12-11-2025,14:48:02
3,Gare Du Nord,003 - GARE DU NORD - BD DU NORD FACE 5,50.47001,4.86199,False,False,Open,Namur,15,9,6,12-11-2025,14:55:07
3,K Sirvydo Skveras,Pilies g. – Bokšto g. sankryža,54.68093041,25.2884646,False,False,Closed,Vilnius,18,18,0,12-11-2025,14:56:03
3,Place De Dombasle,Rue Stanislas - Face au n°68,48.69195795,6.17851022,False,False,Open,Nancy,28,6,22,12-11-2025,14:56:31
4,Gare De Namur,004 - GARE DE NAMUR - PLACE DE LA STATION / GARE,50.4683,4.86266,True,False,Closed,Namur,26,0,0,09-03-2023,15:39:23
4,Musee Des Beaux Arts,DEVANT N° 39 ALLEE EUGENE DELACROIX,49.44430798,1.093579586,True,False,Closed,Rouen,20,20,0,03-07-2023,14:59:59
4,Cormoran,Cormoran (Aprox. C/ de Manuel GarcIa Lago),43.47847181,-3.788653146,True,False,Closed,Santander,20,20,0,17-01-2024,14:39:26
4,Universite  Mail Des Meches,Avenue du GEnEral de Gaulle,48.78811078,2.446248652,True,False,Open,Creteil,40,32,4,20-05-2024,11:12:45
4,Parc Salvator,Rue de Metz devant parking Face rue de la SOMME,47.74831219,7.343104707,False,False,Open,Mulhouse,12,0,0,18-02-2025,14:14:57
4,Place Au Feurre,Place au Feurre,49.8972903,2.297864452,False,False,Open,Amiens,20,15,5,14-06-2025,03:05:31
4,Flore,7 rue de la Cassotte,47.24576329,6.028137274,False,False,Open,Besancon,11,8,3,12-11-2025,14:53:28
4,Calle Leonardo Da Vinci,CALLE LEONARDO DA VINCI - Aprox C/ Thomas Alba Edison,37.41011156,-6.005722269,False,False,Open,Seville,40,14,26,12-11-2025,14:52:34
4,Marche Central,Angle rue Saint-Dizier - Rue du Dr SCHMITT,48.68917333,6.18390463,True,False,Open,Nancy,18,16,2,12-11-2025,14:55:50
4,Jardin Aux Fleurs ,JARDIN AUX FLEURS/BLOEMENHOF - PLACE DU JARDIN AUX FLEURS/BLOEMENHOFPLEIN - RUE DES 6 JETONS/ZES PENNIGENSTRAAT 71,50.84786485,4.343521,False,False,Open,Bruxelles-Capitale,20,15,4,12-11-2025,14:56:32
4,Rocade,ROCADE-RUE DU LABORATOIRE ( DEVANT VDL ),49.602989,6.136083,False,False,Open,Luxembourg,25,18,0,12-11-2025,14:57:29
4,Gambetta  Steursule,15 RUE SAINTE-URSULE,43.602671,1.442031,False,False,Open,Toulouse,20,0,19,12-11-2025,14:56:31
4,Plazadelavirgencallebailia,Plaza de la Virgen - Bailía,39.47671512,-0.3754331,False,False,Open,Valence,25,13,10,12-11-2025,14:53:20
4,Moulin,"18, rue du Moulin",47.21666758,-1.554384714,False,False,Open,Nantes,12,11,1,12-11-2025,14:55:06
4,Rotuš?,Didžioji g.,54.67788858,25.28745212,False,False,Closed,Vilnius,12,12,0,12-11-2025,14:56:13
5,Glorieta De Los Delfines,Glorieta de los Delfines (Aprox. Avda de los Castros),43.47196611,-3.792854496,True,False,Closed,Santander,20,20,0,17-01-2024,14:50:00
5,Hotel De Ville,RUE DE L HOPITAL,49.44250559,1.098266338,True,False,Closed,Rouen,20,20,0,03-07-2023,15:00:37
5,General Leclerc ,144 RUE DU GENERAL LECLERC,48.78683891,2.468566572,True,False,Open,Creteil,18,14,4,10-04-2024,06:35:51
5,Bourse ,BOURSE / BEURS - RUE PAUL DEVAUX/PAUL DEVAUXSTRAAT,50.848893,4.349396,False,False,Closed,Bruxelles-Capitale,44,0,0,05-05-2025,21:03:04
5,St Leu,66 Rue St Leu,49.8990979,2.3005394,False,False,Open,Amiens,20,0,0,10-06-2025,13:47:01
5,Metz,Angle rue de Metz / AV du President Kennedy devant Chambre des MEtiers,47.749314,7.341124,False,False,Open,Mulhouse,15,14,1,05-02-2025,14:26:06
5,Filharmonija,Didžioji g. – Suba?iaus g. sankryža,54.6762269,25.28861228,False,False,Closed,Vilnius,12,12,0,12-11-2025,14:56:05
5,Marengo  Leduc,FACE AU 5 RUE RENE LEDUC,43.611386,1.456729,False,False,Open,Toulouse,19,19,0,12-11-2025,14:55:46
5,Isenbart,Quai de Strasbourg (Pont Denfert Rochereau),47.242745,6.025208,False,False,Open,Besancon,10,4,6,12-11-2025,14:57:11
5,Brossard,"12, AllEe Duquesne",47.21883723,-1.556749263,False,False,Open,Nantes,18,13,5,12-11-2025,14:55:45
5,Camino De Los Descubrimientos,CAMINO DE LOS DESCUBRIMIENTOS - Aprox. C/ Thomás Alba Edison,37.41104356,-6.001959256,False,False,Open,Seville,40,0,40,12-11-2025,14:52:22
5,Place Colonel Driant,Rue Drouin - Face au n°2,48.6921301,6.1872695,False,False,Open,Nancy,16,14,2,12-11-2025,14:52:45
5,Paraiser Plaz,PARAISER PLAZ - Rue Sainte ZITHE devant n°49 angle Place de Paris,49.603694,6.130189,False,False,Open,Luxembourg,25,21,0,12-11-2025,14:53:38
5,Pintorlopezpzapoetallorente,Plaza Poeta Llorente,39.47686312,-0.371231088,False,False,Open,Valence,15,0,15,12-11-2025,14:54:00
6,Faculdad De Ciencias,Facultad de las Ciencias (Aprox. Glorieta de los Delfines),43.47110611,-3.800586459,True,False,Open,Santander,25,25,0,18-12-2023,15:15:16
6,Porte Jeune,Angle av de Colmar / av du President Kennedy devant Porte Jeune,47.75006905,7.338714139,False,False,Closed,Mulhouse,18,18,0,26-03-2025,16:29:43
6,Citadelle Montrescu,Avenue du gEnEral du Gaulle,49.904325,2.30082,False,False,Open,Amiens,50,45,0,27-05-2025,16:47:48
6,Chu  Rue De Germont,DEVANT N° 6 RUE EDOUARD ADAM,49.44120119,1.105985503,True,False,Closed,Rouen,15,15,0,03-07-2023,14:59:54
6,Avenue De La Breche,AVENUE DE LA BRECHE,48.78350103,2.454576358,True,False,Open,Creteil,24,17,6,20-05-2024,11:13:02
6,Parc Micaud,Avenue Edouard Droz,47.242575,6.029757,True,False,Open,Besancon,15,13,2,12-11-2025,14:48:24
6,Place Du Cirque,"7, allEe Duquesne",47.21759668,-1.556937645,True,False,Open,Nantes,21,16,5,12-11-2025,14:51:13
6,Gare Centrale ,GARE CENTRALE/CENTRAAL STATION - BLD DE L'IMPERATRICE/KEIZERINLAAN,50.845333,4.356475,False,False,Open,Bruxelles-Capitale,40,13,22,12-11-2025,14:54:49
6,Al Breck,AL BRECK - VIADUC / BOULEVARD DE LA PETRUSSE,49.60481,6.133404,False,False,Open,Luxembourg,15,8,4,12-11-2025,14:56:29
6,Les,2 rue Emilie du Châtelet,48.69542015,6.195228613,False,False,Open,Nancy,16,6,10,12-11-2025,14:57:32
6,Lois  Capitole,10 RUE DES LOIS,43.605161,1.442323,False,False,Open,Toulouse,18,0,16,12-11-2025,14:55:37
6,Guillencastroconcallesanpedropascual,Guillem de Castro - San Pedro Pascual,39.4727661,-0.384174124,False,False,Open,Valence,15,6,9,12-11-2025,14:48:15
6,Hal?s Turgaviet?,Vis? Švent?j? g. – Bazilijon? g. sankryža,54.67422353,25.2855307,False,False,Closed,Vilnius,9,0,0,12-11-2025,14:56:10
7,Chu  Boulevard Gambetta,RUE D' AMIENS,49.4388538,1.107488427,True,False,Closed,Rouen,20,0,0,03-07-2023,13:29:34
7,Facultad De Derecho,Facultad de Derecho (Aprox. Facultad de Ciencias),43.47016611,-3.806499478,True,False,Closed,Santander,30,30,0,17-01-2024,15:59:35
7,College Saintmartin,68 rue Delpech ŕ proximitE du Collčge St Martin,49.8842726,2.294836,False,False,Open,Amiens,15,14,0,13-06-2025,13:11:45
7,Avenue Du Docteur Paul Casalis,Avenue du docteur Paul Casalis,48.78021353,2.469692231,True,False,Open,Creteil,20,17,2,20-05-2024,11:15:21
7,Mairie,Av du PrEsident Kennedy angle rue Pierre et Marie Curie devant Credit Mutuel,47.7494111,7.335779026,False,False,Open,Mulhouse,15,0,0,18-02-2025,15:16:40
7,Barillerie,"2, allEe Penthičvre",47.21533136,-1.556126126,True,False,Open,Nantes,30,20,10,20-04-2025,08:50:36
7,Parc ,PARC/PARK - RUE ROYALE  (FACE N°66-68)/KONINGSSTRAAT (TEGENOVER N°66-68),50.846319,4.362244,False,True,Open,Bruxelles-Capitale,25,5,20,12-11-2025,14:49:51
7,Ange,007 - ANGE - PLACE DE L ANGE FACE 95,50.46424,4.8652,False,False,Open,Namur,15,10,5,12-11-2025,14:55:13
7,Rousegaertchen,ROUSEGAERTCHEN - PLACE DES MARTYRS,49.605818,6.129062,False,False,Open,Luxembourg,15,7,4,12-11-2025,14:56:05
7,Calle Americo Vespucio,CALLE AMERICO VESPUCIO - Aprox. Calle de Jacques Cousteau,37.407524,-6.007428,False,False,Open,Seville,20,15,4,12-11-2025,14:54:38
7,Place Victor Hugo,6 RUE DU REMPART VILLENEUVE,43.605777,1.446507,False,False,Open,Toulouse,25,2,23,12-11-2025,14:57:24
7,Pzadelmercadotauladecanvis,Plaza del Mercado - Taula de Canvis,39.47484011,-0.379276111,False,False,Open,Valence,19,17,1,12-11-2025,14:56:09
7,Stotis,Sein? g. – Geležinkelio g. sankryža,54.67115499,25.28417915,False,False,Closed,Vilnius,18,18,0,12-11-2025,14:57:08
7,Place St Epvre,Place du Colonel Fabien,48.6952351,6.1798109,False,False,Open,Nancy,20,20,0,12-11-2025,14:52:32
7,Gare Mouillere,Parvis de la Gare,47.240147,6.033776,False,False,Open,Besancon,18,14,4,12-11-2025,14:55:38
8,Plaza De Italia,Plaza de Italia (Aprox. C/ de Joaquín Costa),43.47180483,-3.781346135,True,False,Open,Santander,15,1,0,18-12-2023,13:49:11
8,Porte Haute,Rue Gutenberg angle rue l'Arsenal,47.7469932,7.332063268,False,False,Open,Mulhouse,15,0,0,17-02-2025,15:42:28
8,Saint Marc,RUE ARMAND CARREL,49.43811211,1.100852282,True,False,Closed,Rouen,20,0,0,03-07-2023,14:53:49
8,Rond Point Hotel De Ville,Avenue de la France Libre,48.77735245,2.455378432,True,False,Open,Creteil,34,18,16,10-04-2024,03:37:25
8,Vanmarcke,Rue Edouard David,49.89685151,2.301575829,False,False,Open,Amiens,13,0,0,22-04-2025,12:48:17
8,Plazadelareinaesquinacalledelmar,Plaza de la Reina - Mar,39.473849,-0.375389,False,False,Open,Valence,9,5,4,12-11-2025,14:48:06
8,Marulaz,Place Marulaz,47.239611,6.017099,False,False,Open,Besancon,10,7,3,12-11-2025,14:50:42
8,Artsloi ,ARTS-LOI/KUNST-WET -  AVENUE DES ARTS/KUNSTLAAN 24,50.845683,4.368582,False,True,Open,Bruxelles-Capitale,42,24,16,12-11-2025,14:50:33
8,Boucherie,"4, rue de la Boucherie",47.21620089,-1.55711168,True,False,Open,Nantes,24,12,12,12-11-2025,14:55:09
8,Metzer Plaz,METZER PLAZ - PLACE DE METZ,49.607346,6.12762,False,False,Open,Luxembourg,20,12,3,12-11-2025,14:53:36
8,Cours Leopold  Saint Michel,Angle rue Saint-Michel et cours LEopold,48.69561407,6.176768408,False,False,Open,Nancy,18,10,8,12-11-2025,14:53:51
8,Vidal  Saintjerôme,19 RUE PAUL VIDAL,43.603205,1.448118,False,False,Open,Toulouse,25,13,10,12-11-2025,14:57:26
8,Maironio,K?dr? g. – Maironio g. sankryža,54.67852,25.29385654,False,False,Closed,Vilnius,15,0,0,12-11-2025,14:56:06
9,Republique  Quai Corneille,RUE DE LA REPUBLIQUE,49.43748987,1.096252291,True,False,Closed,Rouen,20,1,0,03-07-2023,15:46:02
9,Avenida De La Magdalena,Avenida de la Magdalena (Aprox. Avda de la Reina Victoria),43.46914941,-3.773275976,True,False,Open,Santander,15,15,0,28-11-2023,13:29:19
9,Cathedrale,Rue Flatters,49.89508212,2.299395004,False,False,Closed,Amiens,17,17,0,01-07-2025,00:20:10
9,Europarc,ALLEE FERNAND POUILLON,48.76603756,2.471314855,True,False,Open,Creteil,22,13,7,20-05-2024,11:12:43
9,Nessel,BOULEVARD CHARLES STOESSEL,47.745105,7.329143,True,False,Closed,Mulhouse,15,15,0,26-03-2025,15:38:36
9,Place Barrois,Place Barrois,48.69950233,6.20473564,False,False,Open,Nancy,17,13,4,12-11-2025,14:53:09
9,Anneessens,Bd Maurice Lemonnier / Maurice Lemonnierlaan 44,50.844045,4.345048,False,False,Open,Bruxelles-Capitale,35,14,14,12-11-2025,14:56:32
9,Convict,CONVICT - PLACE DU FOYER,49.6059,6.1199,False,False,Open,Luxembourg,20,18,0,12-11-2025,14:54:05
9,Užupis,Užupio g. – Krivi? g. sankryža,54.68114579,25.29904378,False,False,Closed,Vilnius,12,0,0,12-11-2025,14:55:14
9,Guepin,Angle rue du Calvaire / Rue GuEpin,47.21581459,-1.559017485,False,False,Open,Nantes,14,14,0,12-11-2025,14:54:58
9,Roquemaurel  Maillard,RUE ROQUEMAUREL / ANGLE 3 RUE ANNE FRANCK,43.596069,1.410505,True,False,Open,Toulouse,18,16,0,12-11-2025,14:55:55
9,La City,Avenue Louise Michel angle rue Plançon,47.235434,6.015261,False,False,Open,Besancon,20,11,9,12-11-2025,14:57:14
9,Plazatetuan,Plaza de Tetuán,39.47432311,-0.370021083,False,False,Open,Valence,25,20,5,12-11-2025,14:56:28
10,Magellan,RUE MAGELLAN,48.76895633,2.456664668,True,False,Open,Creteil,20,8,12,20-05-2024,11:12:54
10,Palais De Justice,Place D' Aguesseau,49.89335886,2.301314221,False,False,Open,Amiens,20,0,0,22-04-2025,11:38:11
10,Place Carnot,COURS CLEMENCEAU,49.43369738,1.090902943,True,False,Open,Rouen,15,15,0,03-07-2023,16:27:56
10,Plaza De San Martin,Plaza de San Martin (Aprox. Avda de la Reina Victoria y Castelar),43.46355212,-3.788005479,True,False,Closed,Santander,15,15,0,17-01-2024,13:03:05
10,Place De La Paix,Rue de la SINNE angle rue CH.BRUN devant Eglise St ETIENNE,47.74418638,7.335726655,True,False,Open,Mulhouse,13,13,0,11-03-2025,14:11:25
10,Gare Thiers,Rue Mazagran,48.69037,6.175677,True,False,Open,Nancy,39,31,8,12-11-2025,14:50:48
10,Picasso,"12, mail Pablo Picasso",47.216207,-1.533796,False,False,Open,Nantes,40,5,34,12-11-2025,14:56:17
10,Place Esquirol,15 PL ETIENNE ESQUIROL,43.600348,1.444659,True,False,Open,Toulouse,44,22,17,12-11-2025,14:57:18
10,Arthur Masson,010 - ARTHUR MASSON - SQUARE ARTHUR MASSON N 5,50.46364,4.87353,False,False,Open,Namur,15,8,7,12-11-2025,14:55:56
10,Calledelhospitalfrentecallehornodelhosp,Hospital - Horno del Hospital,39.47078409,-0.382701119,False,False,Open,Valence,15,8,6,12-11-2025,14:55:48
10,Calle Jose Diaz,CALLE JOSE DIAZ - Aprox. Avda Concejal Alberto JimEnez-Becerril,37.409109,-5.990943,False,False,Open,Seville,20,19,0,12-11-2025,14:47:56
10,Mareler Parc,MARELER PARC - RUE DU 10 SEPTEMBRE ( DEVANT N° 108 ),49.608146,6.111627,False,False,Open,Luxembourg,15,11,1,12-11-2025,14:53:57
10,Chapelle ,Pl de la Chapelle / Kapelleplein,50.841345,4.351729,False,False,Closed,Bruxelles-Capitale,20,12,8,12-11-2025,14:53:45
10,Kaln? Parkas,T. Kosciuškos g.,54.68866096,25.29316907,False,False,Closed,Vilnius,9,0,0,12-11-2025,14:56:13
11,Port D' Amont,Bd Du Port D' Amont,49.89557785,2.30619108,False,False,Open,Amiens,20,0,0,06-06-2025,13:36:37
11,Clemenceau Joffre,COURS CLEMENCEAU,49.43464614,1.08795949,True,False,Closed,Rouen,20,20,0,03-07-2023,13:29:45
11,Puerto Chico,Puerto Chico (Aprox.Paseo Pereda y San Martín),43.46214308,-3.797241449,True,False,Closed,Santander,25,20,4,17-01-2024,12:00:45
11,Place Du Printemps,Rue du Printemps angle Rue Courte,47.750127,7.348552,False,False,Closed,Mulhouse,13,13,0,28-03-2025,18:12:43
11,Sablon ,SABLON / ZAVEL - RUE DE LA REGENCE / REGENTSCHAPSSTRAAT 20,50.84040454,4.356998398,False,True,Closed,Bruxelles-Capitale,17,0,0,12-11-2025,14:53:23
11,Cite Administrative,011 - CITE ADMINISTRATIVE - BD CAUCHY,50.46786,4.87352,False,False,Open,Namur,10,5,5,12-11-2025,14:55:48
11,Place De La Daurade,2 PL DE LA DAURADE,43.601888,1.440368,True,False,Open,Toulouse,23,1,21,12-11-2025,14:56:24
11,Winston Churchill,WINSTON CHURCHILL - PLACE CHURCHILL,49.611317,6.120003,False,False,Open,Luxembourg,15,10,4,12-11-2025,14:55:29
11,Pzaaytoconcallecotanda,Plaza Ayuntamiento - Cotanda,39.4711541,-0.376875101,False,False,Open,Valence,27,8,19,12-11-2025,14:55:57
11,Karaliaus Mindaugo Tiltas,Žygimant? g.,54.68870707,25.28717553,False,False,Closed,Vilnius,15,0,0,12-11-2025,14:55:09
11,Jean Cornet,Place Jean Cornet,47.236363,6.028817,False,False,Open,Besancon,10,5,5,12-11-2025,14:56:43
11,Alberto Jimenez Becerril,Avda Alberto JimEnez Becerril - Antes Calle Maimonides,37.40665,-5.993109,False,False,Open,Seville,20,6,14,12-11-2025,14:50:14
11,Mazagran  Foch,Rue Pierre SEmard,48.689399,6.177771,True,False,Open,Nancy,28,19,9,12-11-2025,14:50:00
11,Calvaire,"8, rue du Calvaire - Place des Volontaires de la DEfense Passive",47.21557894,-1.560675284,False,False,Open,Nantes,15,15,0,12-11-2025,14:52:45
12,Calle Alta,Calle Alta (Aprox. Mercado de MExico),43.45796625,-3.824801242,True,False,Closed,Santander,15,15,0,17-01-2024,10:56:32
12,Amiens,Bd Alsace Lorraine,49.89223829,2.30769408,False,False,Open,Amiens,18,16,0,09-06-2025,13:29:05
12,Place Des Cotonniers,PLACE DES COTONNIERS,49.43087672,1.081412106,True,False,Open,Rouen,20,20,0,30-06-2022,14:08:00
12,Stalingrad,Rue de Stalingrad angle rue Savator,47.74929728,7.346391524,False,False,Closed,Mulhouse,15,15,0,26-03-2025,16:02:23
12,Callesalva,Calle Salvá - Calle Poeta Querol (Antigua ubicación MINYANA),39.471935,-0.374101,False,False,Open,Valence,20,1,19,12-11-2025,14:52:03
12,Pargaminičres  Lakanal,66 RUE PARGAMINIERES,43.60459,1.44002,False,False,Open,Toulouse,11,0,7,12-11-2025,14:53:11
12,Place Saintnicolas,012 - PLACE SAINT-NICOLAS - AVENUE ALBERT 1ER / PARKING P + R,50.46687,4.88484,False,False,Open,Namur,15,5,10,12-11-2025,14:53:45
12,St Sebastien  St Thiebaut,Angle rue Saint-Thiebaut et rue du Grand Rabbin HAGUENAUER,48.68861413,6.179500104,False,False,Open,Nancy,22,18,4,12-11-2025,14:54:21
12,Plaza Duquesa De Alba,PLAZA DUQUESA DE ALBA - Puente de la Barqueta,37.40386954,-5.994904227,False,False,Open,Seville,30,28,1,12-11-2025,14:53:26
12,Granvelle,Place Granvelle,47.235437,6.025724,True,False,Open,Besancon,15,13,2,12-11-2025,14:53:59
12,Hamilius,HAMILIUS - Avenue Monterey,49.610738,6.126743,False,False,Open,Luxembourg,20,4,12,12-11-2025,14:55:50
12,V Kudirkos Aikšt?,Gedimino pr. (V. Kudirkos aikšt?),54.68727317,25.28012935,False,False,Closed,Vilnius,15,0,0,12-11-2025,14:56:11
12,Delorme,"1, boulevard Gabriel Guist'Hau - Place Delorme",47.21515819,-1.563900673,True,False,Open,Nantes,20,20,0,12-11-2025,14:48:40
12,Trone ,Av Marnix / Marnixlaan 30,50.840458,4.365981,False,False,Open,Bruxelles-Capitale,32,14,18,12-11-2025,14:55:41
13,Marche,Rue du PrEsident Roosevelt angle rue Franklin,47.750923,7.329854,False,False,Open,Mulhouse,13,6,0,30-04-2024,17:23:33
13,Calle De San Fernando,Calle de San Fernando (Aprox. Paseo del Alameda),43.46072554,-3.817978245,True,False,Closed,Santander,25,25,0,17-01-2024,12:02:08
13,Saint Sever,PLACE SAINT SEVER,49.43088051,1.086095305,True,False,Closed,Rouen,20,19,0,03-07-2023,16:38:12
13,Gare Jules Barni,Rue Jules Barni,49.889774,2.3091,False,False,Open,Amiens,18,15,3,27-06-2025,16:31:54
13,Saint Nicolas  Charles Iii,71 rue Saint-Nicolas,48.688015,6.187451,False,False,Open,Nancy,16,16,0,12-11-2025,14:53:27
13,Calle Feria,CALLE FERIA - Aprox. C/ Resolana,37.40313353,-5.991918216,False,False,Open,Seville,15,14,1,12-11-2025,14:50:19
13,Lois  Esquile,1 RUE DE L ESQUILE,43.606146,1.44135,False,False,Open,Toulouse,15,0,14,12-11-2025,14:54:36
13,Lemonnier,Bd Maurice Lemonnier / Maurice Lemonnierlaan 204,50.840184,4.341324,False,False,Open,Bruxelles-Capitale,25,10,14,12-11-2025,14:55:50
13,Pont Des Ardennes,013 - PONT DES ARDENNES - PONT DES ARDENNES,50.46155,4.87609,False,False,Open,Namur,15,0,15,12-11-2025,14:56:05
13,Victor Hugo,"Place Victor Hugo (au niveau de la porte Noire, entrEe de la Citadelle)",47.234749,6.029566,True,False,Open,Besancon,14,9,5,12-11-2025,14:56:52
13,Bretagne Sud,"3, rue Pierre Chereau",47.21678795,-1.559161067,False,False,Open,Nantes,20,19,1,12-11-2025,14:57:26
13,Pza Alfonso Magnanimoconcallelanave,Alfonso el Magnánimo - Nave,39.4720301,-0.370965084,False,False,Open,Valence,24,0,24,12-11-2025,14:48:07
13,Gelle Fra,GELLE FRA - Bd Franklin Delano Roosevelt 33,49.60951,6.128503,False,False,Open,Luxembourg,25,17,6,12-11-2025,14:56:44
13,A Vienuolio,Gedimino pr.,54.68785091,25.27663297,False,False,Closed,Vilnius,18,0,0,12-11-2025,14:55:56
14,Atilano Rodriguez,Atilano Rodriguez (aprox Paseo Pereda y San Fernando),43.45838389,-3.810468391,True,False,Open,Santander,30,30,0,19-12-2023,11:48:20
14,Balzac  Boulevard De L' Europe,BOULEVARD DE L' EUROPE,49.42582345,1.087912811,True,False,Open,Rouen,14,0,0,10-01-2023,15:39:58
14,Schumann,Av Robert Schuman angle Rue de Stalingrad,47.75243,7.342944,False,False,Closed,Mulhouse,18,18,0,26-03-2025,16:10:13
14,Gare Cinema,Passage Alphonse Fiquet,49.89028093,2.307375584,False,False,Open,Amiens,30,21,9,26-06-2025,19:06:56
14,Baron Carcer,Huesca - BarOn de CArcer,39.46893509,-0.379815109,False,False,Open,Valence,20,5,14,12-11-2025,14:51:27
14,Knuedler,KNUEDLER - PLACE GUILLAUME,49.610126,6.132084,False,False,Open,Luxembourg,23,15,6,12-11-2025,14:54:13
14,Avenida Sanchez Pizjuan,AVENIDA SANCHEZ PIZJUAN - Facultad de Medicina,37.40696,-5.989076,False,False,Open,Seville,40,15,24,12-11-2025,14:54:36
14,Ff,Zoisova cesta 2,46.046377,14.501256,False,False,Open,Ljubljana,20,6,14,12-11-2025,14:57:19
14,Lukiskiu Aikste,Gedimino pr. – J. Tumo-VaiZganto g. sankryZa,54.68907997,25.26938954,False,False,Closed,Vilnius,21,0,0,12-11-2025,14:56:11
14,Fac De Lettres,Place Godefroy de Bouillon,48.69281808,6.168609788,False,False,Open,Nancy,19,18,1,12-11-2025,14:53:33
14,Porte De Namur ,PORTE DE NAMUR/NAAMSEPOORT - BOULEVARD DE WATERLOO 2,50.838816,4.361557,False,True,Open,Bruxelles-Capitale,42,12,27,12-11-2025,14:56:57
14,Jacobins,Place Jacobins,47.234525,6.033161,False,False,Open,Besancon,10,5,5,12-11-2025,14:48:04
14,Saint Felix,"35, Boulevard Amiral Courbet",47.230334,-1.556133,False,False,Open,Nantes,14,8,6,12-11-2025,14:56:52
14,Perigord,26 RUE DE PERIGORD,43.60742,1.444699,False,False,Open,Toulouse,17,1,15,12-11-2025,14:57:25
15,Gare,RUE JEANNE D'ARC ANGLE RUE DE LA ROCHEFOUCAULD,49.44828519,1.094199564,True,False,Closed,Rouen,15,14,1,03-07-2023,16:31:46
15,Avde Los Castros,Cerca de borna 7,43.465323,-3.825767,True,False,Closed,Santander,15,15,0,17-01-2024,17:57:07
15,Calle Dr Maranon,CALLE DR MARANON - Aprox. C/ San Juan de Ribera,37.407217,-5.985365,False,False,Open,Seville,15,15,0,08-10-2025,15:02:14
15,Grand Rex,Av de Colmar angle Rue Engel Dollfus,47.75243313,7.337387364,False,False,Open,Mulhouse,15,15,0,11-03-2025,12:44:26
15,Lecourbe,"Place De Lattre de Tassigny, 25000 Besancon",47.231188,6.026907,False,False,Open,Besancon,10,5,5,12-11-2025,14:53:38
15,Aristide Briand,Place Aristide Briand,47.21718482,-1.562986793,False,False,Open,Nantes,17,17,0,12-11-2025,14:56:29
15,M Mazvydo Biblioteka,Gedimino pr. – GynEjU g. sankryZa,54.69008355,25.26344367,False,False,Closed,Vilnius,24,0,0,12-11-2025,14:56:12
15,Pont De Jambes,015 - PONT DE JAMBES - BD DE LA MEUSE x AV. DU BOURGEMESTRE JEAN MATERNE,50.457858,4.86697,False,False,Open,Namur,15,8,7,12-11-2025,14:54:52
15,Port Ste Catherine,Angle rue Henri BAZIN et quai Sainte-Catherine,48.695487,6.19067949,False,False,Open,Nancy,16,14,2,12-11-2025,14:53:16
15,Ribera,Ribera - Plaza Ayuntamiento,39.46905609,-0.375728097,False,False,Open,Valence,34,14,20,12-11-2025,14:52:11
15,Theater Plaz,THEATER PLAZ - PLACE DU THEATRE ( FACE N°1 ),49.612782,6.131208,False,False,Open,Luxembourg,20,13,3,12-11-2025,14:54:49
15,Port Stsauveur  Seel,FACE AU 5 PORT SAINT-SAUVEUR,43.596411,1.456584,False,False,Open,Toulouse,20,19,0,12-11-2025,14:55:50
15,Montgomery,Av de Tervuren / Tervurenlaan 171,50.837036,4.406826,False,False,Open,Bruxelles-Capitale,25,15,10,12-11-2025,14:57:37
16,Place Franklin,Rue Engel Dollfus dans le prolongement de la rue de la Filature,47.751456,7.33392,False,False,Closed,Mulhouse,11,11,0,27-03-2025,18:25:09
16,Severo Ochoa,Severo Ochoa,43.45281305,-3.871390683,True,False,Open,Santander,20,20,0,18-12-2023,17:04:43
16,Ile Lacroix,AVENUE JACQUES CHASTELLAIN - PARKING DE LA PATINOIRE,49.43152126,1.102925918,True,False,Closed,Rouen,20,20,0,03-07-2023,16:16:05
16,Joffre,Place du MarEchal Joffre,49.88779293,2.303611089,False,False,Open,Amiens,20,0,0,05-06-2025,13:01:39
16,Louise ,LOUISE/LOUIZA - PLACE LOUISE/LOUIZAPLEIN 53,50.835968,4.355508,False,True,Open,Bruxelles-Capitale,40,13,21,12-11-2025,14:50:13
16,Colon I,"Colón, 60",39.4700601,-0.370524082,False,False,Open,Valence,20,0,20,12-11-2025,14:50:04
16,Calle De Manuel Villalobos,CALLE DE MANUEL VILLALOBOS - Aprox. C/ Sor Francisca Dorotea,37.406927,-5.982622,False,False,Open,Seville,20,13,7,12-11-2025,14:54:28
16,Amelie,- AMELIE - BOULEVARD ROYAL / AVENUE AMELIE,49.613339,6.125794,False,False,Open,Luxembourg,20,14,5,12-11-2025,14:57:20
16,Porte De La Craffe,Angle rue du Haut Bourgeois et place des Bourgets,48.69847245,6.177985537,False,False,Open,Nancy,20,9,11,12-11-2025,14:56:37
16,Fontaine Argent,Avenue Fontaine Argent angle rue Beauregard,47.244981,6.032556,False,False,Open,Besancon,11,5,6,12-11-2025,14:49:11
16,Edouard Normand,"Face au 7, place Edouard Normand",47.21902754,-1.563419484,False,False,Open,Nantes,15,14,1,12-11-2025,14:51:31
16,Place De Wallonie,016 - PLACE DE WALLONIE - PLACE DE LA WALLONIE,50.45602,4.87266,False,False,Open,Namur,15,6,9,12-11-2025,14:55:07
16,Strasbourg  Bayard,32 BD DE STRASBOURG,43.607847,1.446666,False,False,Open,Toulouse,21,16,5,12-11-2025,14:57:19
16,Tauro Kalnas,Pam?nkalnio g. – Tauro g. sankryža,54.68681715,25.27143064,False,False,Closed,Vilnius,12,0,0,12-11-2025,14:56:08
17,Saint Clement,RUE LECUYER ANGLE RUE LETHUILLIER PINEL,49.4257654,1.07630357,True,False,Closed,Rouen,15,15,0,03-07-2023,14:57:21
17,Rucandial,Rucandial,43.45482606,-3.866900669,True,False,Closed,Santander,20,19,0,17-01-2024,16:23:06
17,Comte De Flandre ,Rue Sainte-Marie / Sint-Mariastraat 60,50.855358,4.339465,False,False,Open,Bruxelles-Capitale,24,24,0,13-02-2025,12:43:34
17,Cirque,Mail Albert 1er,49.8887,2.2973,False,False,Open,Amiens,20,20,0,28-06-2025,13:50:59
17,Place De La Reunion,Rue de la Lanterne contre Temple St ETIENNE,47.747038,7.338923,True,False,Closed,Mulhouse,28,22,0,09-04-2025,12:57:32
17,Robert Schuman,ROBERT SCHUMAN - SQUARE SCHUMAN,49.616669,6.126069,False,False,Open,Luxembourg,25,13,6,12-11-2025,14:56:50
17,Jogailos,Pam?nkalnio g. – Jogailos g. sankryža,54.68476062,25.27703073,False,False,Closed,Vilnius,21,21,0,12-11-2025,14:55:56
17,Gare De Jambes,017 - GARE DE JAMBES - RUE DE LA GARE FLEURIE,50.455072,4.8755827,False,False,Open,Namur,15,5,10,12-11-2025,14:54:54
17,Chamars,Avenue de la Gare d'Eau face commissariat,47.232903,6.020116,False,False,Open,Besancon,14,12,2,12-11-2025,14:56:44
17,Sainte Elisabeth,"4, place Sainte Elisabeth",47.21921395,-1.561570148,False,False,Open,Nantes,14,8,6,12-11-2025,14:48:03
17,Strasbourg  Austerlitz,7 BD DE STRASBOURG,43.606499,1.44769,True,False,Open,Toulouse,23,12,10,12-11-2025,14:51:34
17,Conservatoire  Manufacture,27 rue Baron Louis - Angle quai Claude le Lorrain,48.69571769,6.171338387,False,False,Open,Nancy,15,2,13,12-11-2025,14:54:31
17,Estacion Renfe I,Xátiva - BailEn (Estación del Norte),39.46743608,-0.377350101,False,False,Open,Valence,30,15,15,12-11-2025,14:56:17
17,Calle De Madreselva,CALLE DE MADRESELVA - Aprox. Ronda de Pio XII,37.40715156,-5.978840173,False,False,Open,Seville,20,17,1,12-11-2025,14:56:18
18,Docks,bd ferdinands de lesseps angle rue amedee dormoy,49.44541856,1.063998155,True,False,Closed,Rouen,26,26,0,03-07-2023,15:44:11
18,Clemenceau,14 AVENUE AUGUSTE WICKY,47.744426,7.340096,False,False,Closed,Mulhouse,11,11,0,02-04-2025,12:31:59
18,Colon Ii,Colón 20-22,39.46815909,-0.373220089,False,False,Open,Valence,24,0,24,12-11-2025,14:47:58
18,Chamars Esplanade,Place Saint Jacques (en face de l'hopital),47.23526,6.021363,True,False,Open,Besancon,20,15,5,12-11-2025,14:48:04
18,Avenida Eduardo Dato,AVENIDA EDUARDO DATO - Aprox. C/ MarquEs del Nervión,37.38207546,-5.968121121,False,False,Open,Seville,20,15,5,12-11-2025,14:55:52
18,Campus Lampertsbierg,CAMPUS LAMPERTSBIERG - RUE DE LA FAIENCERIE ( DEVANT N° 151 ),49.6219,6.1118,False,False,Open,Luxembourg,19,8,11,12-11-2025,14:56:42
18,Strasbourg  Jaurčs,4 BD DE STRASBOURG,43.606346,1.44813,False,False,Open,Toulouse,24,9,11,12-11-2025,14:57:33
18,Cpas,018 - CPAS - RUE DE DAVE,50.451892,4.868837,False,False,Open,Namur,10,5,5,12-11-2025,14:55:12
18,Gutenberg,GUTENBERG - Square Gutenberg (face n° 5) / Gutenbergsquare (tegenover n° 5),50.84771,4.377552,False,False,Open,Bruxelles-Capitale,25,4,19,12-11-2025,14:57:31
18,Radvil? R?mai,Vilniaus g. – Islandijos g. sankryža,54.68300406,25.28001237,False,False,Closed,Vilnius,21,0,0,12-11-2025,14:56:08
18,Gare Saint Leon,Angle rue Saint-LEon - Esplanade Saint-LEon,48.68956011,6.172515452,False,False,Open,Nancy,20,19,1,12-11-2025,14:55:32
18,Viarme,"23, place Viarme",47.22142934,-1.563308367,False,False,Open,Nantes,14,7,7,12-11-2025,14:57:14
19,Jardin Des Plantes,Avenue des Martyrs de la REsistance angle rue de la mare au parc,49.4217492,1.079707618,True,False,Closed,Rouen,15,15,0,03-07-2023,14:55:38
19,Les Trois Rois,Rue Jacques Preiss angle rue des Rabbins,47.74409332,7.333486551,False,False,Open,Mulhouse,14,0,0,06-02-2025,18:43:17
19,Parlamento,PARLAMENTO - Aprox. C/ Don Fadrique,37.40332754,-5.989037206,False,False,Open,Seville,20,18,2,12-11-2025,14:49:03
19,Saint Similien,"1, place Saint Similien",47.21985447,-1.55892089,False,False,Open,Nantes,15,15,0,12-11-2025,14:55:46
19,Philharmonie,PHILHARMONIE - AVENUE JF KENNEDY / PLACE DE L'EUROPE,49.619345,6.143907,False,False,Open,Luxembourg,25,12,11,12-11-2025,14:56:11
19,Carnot  Peri,1 RUE DES 7 TROUBADOURS,43.605571,1.449297,False,False,Open,Toulouse,24,21,3,12-11-2025,14:57:02
19,Place Morichar ,PLACE MORICHAR / MORICHARPLEIN - Rue des Etudiants / Studentenstraat 32 - 34,50.828046,4.347596,False,True,Open,Bruxelles-Capitale,20,12,5,12-11-2025,14:56:12
19,Revolution,Place de la REvolution rue Luc Breton,47.239533,6.023395,False,False,Open,Besancon,15,8,7,12-11-2025,14:56:34
19,Juanllorens,Juan Llorens - Quart,39.4743371,-0.391681148,False,False,Open,Valence,15,14,1,12-11-2025,14:48:05
19,Commanderie  Chalnot,Angle rue Pierre CHALNOT et rue de la Commanderie,48.68691972,6.172347892,False,False,Open,Nancy,18,9,9,12-11-2025,14:51:37
19,S N?ries Gimnazija,Vokie?i? g. – Dominikon? g. sankryža,54.68094054,25.28207902,False,False,Closed,Vilnius,21,21,0,12-11-2025,14:55:37
20,Branly,Bd Maignan Larivičre,49.89001551,2.291227264,False,False,Open,Amiens,20,10,0,11-06-2025,12:34:42
20,Auberge De Jeunesse,ROUTE DE DARNETAL,49.44145223,1.120087273,True,False,Open,Rouen,15,14,0,01-07-2023,00:01:52
20,Filature,Allee Nathan Katz Parvis de la Filature,47.75353392,7.348462912,False,False,Open,Mulhouse,12,0,0,19-02-2025,12:51:34
20,Trak?,Pylimo g.,54.6791769,25.27784234,False,False,Open,Vilnius,1,1,0,20-06-2025,13:38:24
20,Palais Royal ,PALAIS ROYAL/KONINGSSTRAAT PALEIS - RUE ROYALE (DEVANT N°14)/KONINKLIJKESTRAAT (N°14),50.843613,4.360628,False,True,Open,Bruxelles-Capitale,20,8,12,12-11-2025,14:48:50
20,Tristan Bernard,Avenue Fontaine Argent angle Bld Diderot,47.247808,6.03642,False,False,Open,Besancon,12,5,7,12-11-2025,14:48:40
20,Place Des Vosges,Angle avenue du GEnEral Leclerc et rue du MarEchal De Lattre de Tassigny,48.684781,6.187631,False,False,Open,Nancy,15,3,12,12-11-2025,14:53:11
20,Fernandoelcatolicocallequart,Quart - Fernando el Católico,39.47500211,-0.387938137,False,False,Open,Valence,16,16,0,12-11-2025,14:51:12
20,Bouffay,"7, allEe du Port Maillard - Cours Franklin Roosevelt",47.214301,-1.552782,False,False,Open,Nantes,15,13,2,12-11-2025,14:57:00
20,Calle San Juan De Ribera,CALLE SAN JUAN DE RIBERA - Aprox. C/ Fray Isidoro de Sevilla,37.40486954,-5.986537198,False,False,Open,Seville,15,2,13,12-11-2025,14:57:04
20,Carnot  Trois Journees,69 BD LAZARE CARNOT,43.604677,1.449586,False,False,Open,Toulouse,26,13,11,12-11-2025,14:48:42
20,Coque,COQUE - AVENUE JF KENNEDY / RUE ERASME,49.62297,6.15497,False,False,Open,Luxembourg,20,16,0,12-11-2025,14:55:44
21,Simone De Beauvoir,RUE DE LESSARD ANGLE AVENUE DE GRAMMOND,49.42721402,1.096418417,True,False,Open,Rouen,16,14,0,30-06-2023,19:13:09
21,Fonderie,Rue de la Locomotive angle Rue des Monteurs,47.73966,7.332354,True,False,Closed,Mulhouse,27,19,7,26-03-2025,12:26:55
21,Maison De La Culture,Place LEon Gontier,49.89392166,2.292724729,False,False,Open,Amiens,20,20,0,05-06-2025,17:40:27
21,Hopital Central,45 avenue du MarEchal de Lattre de Tassigny,48.68335021,6.190296608,False,False,Open,Nancy,20,3,17,12-11-2025,14:53:33
21,Calle Manuel Villalobos,CALLE MANUEL VILLALOBOS - Aprox. C/ Madre San Marcelo,37.40547355,-5.981527181,False,False,Open,Seville,20,16,4,12-11-2025,14:53:02
21,Jean Monnet,JEAN MONNET - BOULEVARD KONRAD ADENAUER / RUE ERASME,49.625714,6.148347,False,False,Open,Luxembourg,20,19,1,12-11-2025,14:54:23
21,Carnot  Labeda,63 BD LAZARE CARNOT,43.604079,1.450158,False,False,Open,Toulouse,25,22,2,12-11-2025,14:53:53
21,Casino,021 - CASINO - AVENUE DE LA PLANTE / CASINO,50.456159,4.862225,False,False,Open,Namur,15,5,10,12-11-2025,14:55:00
21,De Brouckere,DE BROUCKERE - PLACE DE BROUCKERE/DE BROUCKEREPLEIN,50.85223,4.35316,False,False,Open,Bruxelles-Capitale,43,26,15,12-11-2025,14:55:35
21,Liberte,Place de la LibertE,47.24746,6.028587,False,False,Open,Besancon,12,6,6,12-11-2025,14:55:21
21,Talensac Sud,"6, rue Talensac",47.22114333,-1.556476339,False,False,Open,Nantes,16,13,3,12-11-2025,14:54:36
21,Vašingtono Aikšt?,J. Tumo-Vaižganto g. – Lukiški? g. sankryža,54.69207484,25.2711658,False,False,Closed,Vilnius,12,0,0,12-11-2025,14:55:42
22,Moquechien,"8, rue Moquechien - 17, allEe des Tanneurs",47.22039213,-1.555531042,False,False,Open,Nantes,20,18,0,08-07-2022,12:29:34
22,St Sauveur,Rue de Zillisheim angle Rue St Sauveur,47.742397,7.331582,False,False,Closed,Mulhouse,11,11,0,31-03-2025,11:42:47
22,Quatre Chenes,Avenue du GEnEral Foy,49.890242,2.282163,False,False,Open,Amiens,20,11,6,04-06-2025,12:01:25
22,Rivotte,20 faubourg Rivotte,47.23219,6.035007,False,False,Open,Besancon,12,8,4,12-11-2025,14:48:17
22,Avenida De Llanes,AVENIDA DE LLANES - Aprox. Avda de Miraflores,37.40512955,-5.974831158,False,False,Open,Seville,20,18,1,12-11-2025,14:49:15
22,Vcup,Up?s g. (šalia VCUP),54.6941691,25.27496123,False,False,Closed,Vilnius,24,0,0,12-11-2025,14:51:10
22,Grognon,022 - GROGNON - ROND-POINT GROGNON / GROGNON,50.461576,4.867857,False,False,Open,Namur,15,5,10,12-11-2025,14:55:14
22,Jacqmain,Bd du Jardin Botanique / Kruidtuinlaan 3,50.85587,4.35585,False,False,Open,Bruxelles-Capitale,23,13,9,12-11-2025,14:49:54
22,Carnot  Roland,24 BD LAZARE CARNOT,43.602914,1.451719,False,False,Open,Toulouse,20,10,8,12-11-2025,14:57:22
22,Hopital St Julien,Angle rue Molitor et rue Foller,48.6858574,6.192901715,False,False,Open,Nancy,16,10,6,12-11-2025,14:51:50
22,Campus Kirchbierg,CAMPUS KIRCHBIERG - BOULEVARD JF KENNEDY / RUE K KALERGI,49.6264,6.1613,False,False,Open,Luxembourg,20,2,14,12-11-2025,14:56:08
23,Hasenrain,Avenue d'Altkirch entrEe hopital,47.736019,7.332088,False,False,Closed,Mulhouse,15,10,5,26-03-2025,12:29:02
23,St Roch,Foch,49.89344253,2.284525283,False,False,Open,Amiens,20,16,0,06-06-2025,13:59:19
23,Buat,"118, rue de Coulmiers",47.22714547,-1.542404741,False,False,Open,Nantes,11,11,0,12-11-2025,14:54:05
23,Carnot  Idrac,6 BD LAZARE CARNOT,43.601372,1.452038,True,False,Open,Toulouse,26,19,7,12-11-2025,14:54:06
23,Reimerwee,REIMERWEE - BOULEVARD K ADENAUER / RUE K KALERGI,49.629448,6.157348,False,False,Open,Luxembourg,18,5,10,12-11-2025,14:57:15
23,Europos Aikste,Konstitucijos pr. (Europos aikStE),54.69546047,25.2786606,False,False,Closed,Vilnius,21,0,0,12-11-2025,14:57:24
23,Maurice Servais,023 - MAURICE SERVAIS - PLACE MAURICE SERVAIS DVT 92,50.46204,4.86499,False,False,Open,Namur,10,3,7,12-11-2025,14:56:13
23,Granviafernandoelcatolico,Fernando el Católico - Erudito Orellana,39.4715961,-0.38626913,False,False,Open,Valence,19,17,2,12-11-2025,14:55:56
23,Agora,AGORA - Place Agora / Agoraplein 120,50.846331,4.355193,False,False,Open,Bruxelles-Capitale,19,6,12,12-11-2025,14:49:24
23,Promenade Des Canaux,Promenade des Canaux,48.69279397,6.196284358,False,False,Open,Nancy,16,13,3,12-11-2025,14:54:58
24,Hangar,AllEe Jean de BEthencourt devant LE HANGAR 108 76100 ROUEN,49.441286,1.07176,True,False,Open,Rouen,40,40,0,12-05-2023,12:30:49
24,Tivoli,Rue de Tivoli angle Bd Wallack,47.74305509,7.347364171,False,False,Open,Mulhouse,13,13,0,04-02-2025,14:01:27
24,Coliseum,Boulevard Faidherbe,49.89413493,2.287054049,False,False,Open,Amiens,15,3,12,01-07-2025,01:19:17
24,Granviaramonycajal,Fernando el Católico - Cuenca,39.46904509,-0.384118122,False,False,Open,Valence,20,15,4,12-11-2025,14:48:06
24,Rogier,Pl. Rogier / Rogierplein 1,50.855268,4.358717,False,False,Open,Bruxelles-Capitale,36,17,19,12-11-2025,14:50:40
24,Versailles,"25, quai de Versailles - Ile de Versailles",47.22451491,-1.553711961,False,False,Open,Nantes,15,12,3,12-11-2025,14:55:14
24,Saintaubain,024 - SAINT-AUBAIN - RUE DU COLLEGE / PLACE SAINT-AUBIN,50.46387,4.861142,False,False,Open,Namur,15,7,8,12-11-2025,14:56:00
24,Granges,2 rue Morand,47.238129,6.026293,False,False,Open,Besancon,12,4,8,12-11-2025,14:56:57
24,Place Saintetienne,14 PL SAINT-ETIENNE,43.600055,1.449273,False,False,Open,Toulouse,22,1,21,12-11-2025,14:57:26
24,Weicker,WEICKER - AVENUE JF KENNEDY / RUE ALPHONSE WEICKER,49.631952,6.17048,False,False,Open,Luxembourg,20,8,9,12-11-2025,14:55:01
24,Calle Leon Xiii,Calle Fray Isidoro de Sevilla - Aprox C/ Alvarez Chanca,37.40403554,-5.984592191,False,False,Open,Seville,15,14,1,12-11-2025,14:53:38
24,Forum Palace,Up?s g. – G. Baravyko g. sankryža,54.69631647,25.26611228,False,False,Closed,Vilnius,12,0,0,12-11-2025,14:56:12
25,La Hotoie,Bd des FEdErEs,49.89686254,2.282867748,False,False,Open,Amiens,20,19,0,27-06-2025,14:07:46
25,Station Mobile,Palais de Justice,49.442788,1.091224,True,False,Closed,Rouen,15,15,0,03-07-2023,10:39:04
25,Palais Des Sports,Rue du Château Zu-Rhein angle Rue de Hirsingue,47.740487,7.320169,False,False,Closed,Mulhouse,11,11,0,27-03-2025,13:43:40
25,Panorama,Saltoniški? g. (PC „Panorama“),54.69850622,25.25819165,False,False,Closed,Vilnius,18,0,0,06-11-2025,13:24:47
25,Bersot,Place de la 7čme Brigade blindEe,47.23886,6.029562,False,False,Open,Besancon,10,4,6,12-11-2025,14:47:44
25,Porte D'Anderlecht ,"PORTE D'ANDERLECHT - BD DE L'ABATTOIR, 43-44",50.845769,4.338961,False,False,Open,Bruxelles-Capitale,25,17,7,12-11-2025,14:53:02
25,Calledelalberic,"Alberique, 18 (Abastos)",39.46769708,-0.388701135,False,False,Open,Valence,23,17,6,12-11-2025,14:50:09
25,Kiem,KIEM - CIRCUIT DE LA FOIRE / RUE ALPHONSE WEICKER,49.634283,6.166633,False,False,Open,Luxembourg,20,17,1,12-11-2025,14:53:27
25,Dalby,"61, boulevard Ernest Dalby",47.223919,-1.530096,True,False,Open,Nantes,18,10,6,12-11-2025,14:56:21
25,Avenida De La Cruz Roja,AVENIDA DE LA CRUZ ROJA - Aprox. C/ Albaida,37.403514,-5.981152,False,False,Open,Seville,16,13,1,12-11-2025,14:57:15
25,Place Commanderie,Place de la Commanderie - Face au n°13,48.68591798,6.167421816,False,False,Open,Nancy,18,8,10,12-11-2025,14:53:42
25,Place Rouaix,1 RUE DES TOURNEURS,43.599525,1.445544,False,False,Open,Toulouse,18,8,10,12-11-2025,14:57:23
26,Saintexupery,Centre sportif Antoine-de-Saint-ExupEry - Rue des Petites Eaux du Robec,49.439524,1.116237,True,False,Open,Rouen,20,0,0,21-03-2023,20:14:27
26,Goerich,Rue Charles Goerich angle Rue Koechlim-Dolfus,47.74325936,7.32393496,False,False,Closed,Mulhouse,13,13,0,27-03-2025,15:27:30
26,Marche Aux Chevaux,Rue du MarchE aux Chevaux,49.89725129,2.289247028,False,False,Open,Amiens,20,5,0,05-06-2025,11:43:24
26,Avenida De Miraflores,AVENIDA DE MIRAFLORES - Aprox. C/ Manuel Ródenas,37.40249454,-5.977678166,False,False,Open,Seville,17,16,0,12-11-2025,14:52:15
26,Guist'Hau Sud,"30, boulevard Gabriel Guist'Hau - Rue Harouys",47.21682796,-1.567004526,False,False,Open,Nantes,15,14,1,12-11-2025,14:52:06
26,Hollerecher Plaz,HOLLERECHER PLAZ - PLACE SAINT PIERRE ET PAUL / RUE BAUDOUIN,49.598613,6.117957,False,False,Open,Luxembourg,25,17,5,12-11-2025,14:55:52
26,Baudricourt Haussonville,Rue des 3 Epis Baudricourt,48.67524849,6.162844844,False,False,Open,Nancy,15,15,0,12-11-2025,14:53:45
26,Arsenal,026 - ARSENAL - BOULEVARD FRERE ORBAN,50.464457,4.85644,False,False,Open,Namur,15,5,5,12-11-2025,14:55:56
26,Dalbade  Paradoux,9 RUE HENRY DE GORSSE,43.597941,1.443002,False,False,Open,Toulouse,22,15,7,12-11-2025,14:55:49
26,Van Lint,VAN LINT - RUE VAN LINT/ VAN LINTSTRAAT 6 - 8,50.839413,4.328914,False,False,Open,Bruxelles-Capitale,23,11,12,12-11-2025,14:50:48
26,Callesanjosedecalasanz,San JosE de Calasanz - Salas Quiroga,39.466303,-0.385955,False,False,Open,Valence,15,15,0,12-11-2025,14:53:40
26,Edukologijos Universitetas,Up?s g. – Student? g. sankryža,54.69558,25.257209,False,False,Closed,Vilnius,18,0,0,12-11-2025,14:56:12
27,Cite Scolaire,bd saint quentin devant clinique vEtErinaire,49.879239,2.296116,False,False,Open,Amiens,40,0,0,18-06-2025,06:21:50
27,Callesanvicentemartir,San Vicente Martir - Doctor Vilá Barberá,39.46333007,-0.381942112,False,False,Open,Valence,20,15,4,12-11-2025,14:47:58
27,Žaliasis Tiltas,Kalvarij? g. – Žvej? g. sankryža,54.69221264,25.27933285,False,False,Closed,Vilnius,18,0,0,12-11-2025,14:55:15
27,Mercier,MERCIER - PLACE DE LA GARE / RUE DU COMMERCE / PARKING,49.5986,6.132119,False,False,Open,Luxembourg,15,9,0,12-11-2025,14:57:02
27,Omalius,027 - OMALIUS - REMPART DE LA VIERGE / PLACE D'OMALIUS,50.4674,4.8581,False,False,Open,Namur,15,8,7,12-11-2025,14:54:42
27,Leclerc,Place Leclerc,47.2422671,6.0144482,False,False,Open,Besancon,10,8,2,12-11-2025,14:56:37
27,Square Albert I ,SQUARE ALBERT I / ALBERT I-SQUARE 25 - 26 - 27,50.838733,4.32176,False,False,Open,Bruxelles-Capitale,25,12,12,12-11-2025,14:57:22
27,Tounis  Pont Neuf,20 M APRES 122 QUAI DE TOUNIS,43.598966,1.440387,False,False,Open,Toulouse,22,19,2,12-11-2025,14:55:55
27,Nancy Thermal,Rue du Sergent Blandan,48.679501,6.167344,True,False,Open,Nancy,18,15,3,12-11-2025,14:49:29
27,Guist'Hau Nord,"42, boulevard Gabriel Guist'Hau",47.21792982,-1.569171883,False,False,Open,Nantes,15,11,4,12-11-2025,14:53:28
28,Operos Ir Baleto Teatras,A. Vienuolio g. – A. Goštauto g. sankryža,54.69049166,25.27821042,False,False,Closed,Vilnius,15,0,0,07-11-2025,18:25:44
28,P+R Pole Licorne,AVENUE DE LA LICORNE,49.89766548,2.266672235,False,False,Open,Amiens,18,16,0,17-06-2025,11:41:02
28,Schuman Lefeb,Face 113 Avenue Robert Schuman angle Rue lefebvre,47.756465,7.348388,False,False,Closed,Mulhouse,15,15,0,26-03-2025,17:16:58
28,Navarro Reverte,Navarro Reverter - Grabador Esteve,39.4715501,-0.367842075,False,False,Open,Valence,29,1,28,12-11-2025,14:47:57
28,Marie Louise,Rue de Belfort angle rue Suard,47.248886,6.030818,False,False,Open,Besancon,12,9,3,12-11-2025,14:48:16
28,Calle Rafael Salgado,CALLE RAFAEL SALGADO - Aprox. C/ Castillo Alcala de Guadaira,37.36026137,-5.976659138,False,False,Open,Seville,18,12,5,12-11-2025,14:49:09
28,Carričre Misery,Rue Joseph Cholet,47.20007249,-1.579903846,False,False,Open,Nantes,16,13,3,12-11-2025,14:55:15
28,Expo,028 - EXPO - AV SGT VRITHOFF FACE PALAIS DES EXPO,50.46675,4.84834,False,False,Open,Namur,15,10,5,12-11-2025,14:55:23
28,Place Saintpierre,2 PLACE SAINT-PIERRE,43.603228,1.436034,True,False,Open,Toulouse,22,1,20,12-11-2025,14:57:22
28,Marche D'Haussonville,Boulevard d'Haussonville,48.6722762,6.165710709,False,False,Open,Nancy,15,11,4,12-11-2025,14:55:19
28,Charly'S Gare,CHARLY'S GARE - BOULEVARD PRINCE HENRI,49.61258,6.12391,False,False,Open,Luxembourg,20,10,3,12-11-2025,14:57:00
29,Pont Guillaume,Quai Cavelier de la Salle angle avenue Jean Rondeau,49.438927,1.08062,True,False,Open,Rouen,15,15,0,30-06-2023,11:58:29
29,Laurent,72 Rue Laurent,47.75220582,7.352306114,False,False,Closed,Mulhouse,11,11,0,28-03-2025,14:10:33
29,Valade,31 RUE VALADE,43.605031,1.437386,False,False,Open,Toulouse,21,1,20,12-11-2025,14:53:08
29,Gibelotte,carrefour Xavier Marmier Ousmane Sow,47.242184,6.009141,False,False,Open,Besancon,12,9,3,12-11-2025,14:53:34
29,Monterey,MONTEREY - AVENUE DE MONTEREY ( FACE N° 49 ),49.609583,6.119523,False,False,Open,Luxembourg,20,10,6,12-11-2025,14:57:10
29,Wiertz,029 - WIERTZ - PLACE WIERTZ FACE 8,50.464476,4.849289,False,False,Open,Namur,15,10,5,12-11-2025,14:54:42
29,Zalgirio Stadionas,RinktinEs g. – A. Juozapavi?iaus g. sankryZ?,54.69180897,25.28903636,False,False,Closed,Vilnius,12,0,0,12-11-2025,14:55:17
29,Duguay Trouin,"18, allEe Duguay Trouin",47.21269596,-1.557306445,True,False,Open,Nantes,26,15,11,12-11-2025,14:54:27
29,Carretera De Carmona,CARRETERA DE CARMONA - Aprox. Avda de Llanes,37.402523,-5.970229,False,False,Open,Seville,15,14,1,12-11-2025,14:56:31
29,Plaza America,Plaza AmErica - Cirilo Amorós - Sorní,39.4700801,-0.365390066,False,False,Open,Valence,20,0,20,12-11-2025,14:48:02
29,Velodrome,Place du VElodrome,48.66672119,6.166619783,True,False,Open,Nancy,24,10,14,12-11-2025,14:49:54
30,Hardt,Rue de la Hardt face au 40,47.7532,7.3554,False,False,Open,Mulhouse,11,0,0,05-02-2025,19:17:27
30,Leo Lagrange,Rue Alphonse Delacroix,47.24413995,6.004415762,False,False,Open,Besancon,20,14,6,12-11-2025,14:48:45
30,Nations,au milieu du boulevard des Nations  ŕ Vandoeuvre dans le prolongement de l’arręt de bus Nations devant le centre commercial,48.662356,6.173442,False,False,Open,Nancy,15,9,6,12-11-2025,14:53:17
30,Cirilo Amoros,Cirilo Amorós - Jorge Juan (Mercado Colón),39.46856909,-0.368590075,False,False,Open,Valence,20,5,15,12-11-2025,14:48:02
30,Place Louise Godin,030 - PLACE LOUISE GODIN- LOUISE GODIN,50.460596,4.842836,False,False,Open,Namur,15,7,8,12-11-2025,14:56:08
30,Commerce,Place du Commerce - Cours Franklin Roosevelt,47.21388769,-1.555505352,False,False,Open,Nantes,33,9,23,12-11-2025,14:55:42
30,Laeken ,LAEKEN/LAKEN - RUE DE LAEKEN (ENTRE N° 119 ET 109) / LAKENSESTRAAT (TUSSEN N° 119 EN 109),50.853666,4.351771,False,False,Open,Bruxelles-Capitale,25,19,6,12-11-2025,14:56:43
30,Zirmunu,ZirmUnU g. – TuskulEnU g. ZiedinE sankryZa (Salia PC IKI ),54.697047,25.299883,False,False,Closed,Vilnius,24,0,0,12-11-2025,14:56:07
30,Merkels Plaz,MERKELS PLAZ - RUE JEAN BAPTISTE MERKELS / Bd CHARLES MARX,49.599846,6.122565,False,False,Open,Luxembourg,20,16,2,12-11-2025,14:54:03
30,Place Anatole France,40 PL ANATOLE FRANCE,43.606241,1.438341,False,False,Open,Toulouse,25,2,22,12-11-2025,14:57:31
31,Borna De Prueba,Borna de prueba,40.3773182,-3.7169293,True,False,Closed,Santander,3,1,0,12-01-2024,14:30:51
31,Kinepolis,Cinema Kinepolis Nouveau Bassin,47.76001,7.351265,True,False,Open,Mulhouse,15,14,0,14-02-2025,12:26:13
31,Iut,Avenue de l'observatoire,47.24736894,5.992248994,False,False,Open,Besancon,20,10,9,12-11-2025,14:53:46
31,Bourse,AllEe de la Bourse - Boulevard des Nations-Unies,47.21208303,-1.559086551,True,False,Open,Nantes,22,6,16,12-11-2025,14:52:16
31,Musee De La Bd ,MUSEE DE LA BD/STRIPMUSEUM - BOULEVARD DE BERLAIMONT/DE BERLAIMONTLAAN,50.850303,4.360706,False,False,Open,Bruxelles-Capitale,25,14,11,12-11-2025,14:55:19
31,Place De Bercksurmer,031 - PLACE DE BERCK-SUR-MER / PLACE DE BERCK-SUR-MER,50.464517,4.839852,False,False,Open,Namur,15,8,7,12-11-2025,14:54:28
31,Olandu Ziedas,Antakalnio g. – OlandU g. ZiedinE sankryZa (Salia Sv. Petro ir Povilo baZny?ios),54.69332591,25.30506775,False,False,Closed,Vilnius,21,0,0,12-11-2025,14:55:41
31,Artem,en face du 119 rue du Sergent Blandan,48.674665,6.170655,False,False,Open,Nancy,20,12,8,12-11-2025,14:53:32
31,Place De France,PLACE DE FRANCE - PLACE DE FRANCE,49.60625,6.105961,False,False,Open,Luxembourg,20,18,0,12-11-2025,14:55:30
31,Calle Salamanca,Salamanca - Conde Altea,39.46733309,-0.365119064,False,False,Open,Valence,19,18,0,12-11-2025,14:56:27
31,Place Du Peyrou,7 RUE DES SALENQUES,43.607369,1.439453,False,False,Open,Toulouse,20,0,20,12-11-2025,14:56:24
32,Campus,Rue Alfred Verner AllEe Brenard Thierry-Mieg,47.7329045,7.3155374,True,False,Closed,Mulhouse,30,28,0,27-03-2025,12:48:03
32,C,Conde Altea - Almirante Cadarso,39.46597408,-0.368338073,False,False,Open,Valence,20,0,20,12-11-2025,14:48:06
32,Calle Munoz Leon,CALLE MUNOZ LEON - Aprox. C/ Morera,37.40201953,-5.986323196,False,False,Open,Seville,15,12,1,12-11-2025,14:48:26
32,Crous Universite,35 Avenue de l'Observatoire,47.24848792,5.986928918,False,False,Open,Besancon,42,35,7,12-11-2025,14:50:02
32,Dansaert,DANSAERT - RUE ANTOINE DANSAERT/ANTOINE DANSAERTSTRAAT 60-62-64,50.850176,4.346384,False,False,Open,Bruxelles-Capitale,35,9,24,12-11-2025,14:56:20
32,Ecole Des Cadets,032- ECOLE DES CADETS - PLACE DE L'ECOLE DES CADETS,50.46603,4.87735,False,False,Open,Namur,17,8,9,12-11-2025,14:55:51
32,Medreville,en face du 1 Boulevard Charlemagne Nancy,48.685497,6.161015,False,False,Open,Nancy,15,9,6,12-11-2025,14:57:01
32,Foch,Place Foch,47.2192484,-1.550185,True,False,Open,Nantes,14,10,4,12-11-2025,14:53:20
32,Musee Saintraymond,2 PLACE SAINT-SERNIN / ANGLE 2 RUE DES 3 RENARDS,43.607608,1.441304,True,False,Open,Toulouse,12,2,10,12-11-2025,14:53:37
32,Piscine Olympique,PISCINE OLYMPIQUE - RUE LEON HENGEN,49.623901,6.150013,False,False,Open,Luxembourg,20,5,13,12-11-2025,14:57:36
33,Auberge,Rue de Brunstatt angle Rue de l'Illberg,47.73832112,7.317404626,False,False,Closed,Mulhouse,12,12,0,27-03-2025,13:23:36
33,Lietuvos Vaiku Ir Jaunimo Centras,Konstitucijos pr. (Salia Lietuvos vaikU ir jaunimo centro),54.698543,25.26644,False,False,Closed,Vilnius,18,0,0,12-11-2025,14:47:43
33,Granviagermaniasesqcalleruzafa,Germanías - Ruzafa,39.46478608,-0.37408109,False,False,Open,Valence,20,0,20,12-11-2025,14:48:08
33,Racine,"5, rue Racine",47.21352261,-1.563140874,False,False,Open,Nantes,15,9,6,12-11-2025,14:54:09
33,K Adenauer,K. ADENAUER - BOULEVARD KONRAD ADENAUER ( DEVANT BEI ),49.620586,6.138998,False,False,Open,Luxembourg,15,5,8,12-11-2025,14:57:06
33,Laxou Mairie,9 av Paul DEroulčde,48.684954,6.154908,False,False,Open,Nancy,15,10,5,12-11-2025,14:54:47
33,Mort Subite,MORT SUBITE - RUE MONTAGNE AUX-HERBES-POTAGERES (FACE N° 7)/WARMOESBERG (TEGENOVER N°7),50.848701,4.356055,False,False,Open,Bruxelles-Capitale,25,1,22,12-11-2025,14:57:26
33,Bosquets,033 - BOSQUETS - RUE DES BOSQUETS,50.462741,4.837198,False,False,Open,Namur,15,6,9,12-11-2025,14:54:11
33,Stbernard  Beraldi,11 RUE HENRI BERALDI,43.608605,1.4436,False,False,Open,Toulouse,15,2,11,12-11-2025,14:55:55
34,Patinoire,Boulevard Charles Stoessel entrEe Parc des Sport Patinoire,47.736212,7.31875,False,False,Open,Mulhouse,15,13,0,14-02-2025,15:48:20
34,Plaza Pumarejo,PLAZA PUMAREJO - Aprox. Calle San Luis,37.40102753,-5.988578203,False,False,Open,Seville,15,0,0,28-01-2025,13:19:47
34,Strasbourg  Bosc,15 RUE JOSEPH BOSC,43.609766,1.445681,False,False,Open,Toulouse,22,19,3,12-11-2025,14:53:00
34,Kolleisch,- KOLLEISCH - RUE DE BRAGANCE,49.604577,6.111927,False,False,Open,Luxembourg,31,24,4,12-11-2025,14:55:31
34,Fontainas,FONTAINAS - BLD ANSPACH N°180 A 192/ANSPACHLAAN N°180 TOT 192,50.84563,4.346942,False,False,Open,Bruxelles-Capitale,35,12,14,12-11-2025,14:57:21
34,Mediathčque,"24, quai de la Fosse",47.21088693,-1.561744906,True,False,Open,Nantes,25,8,17,12-11-2025,14:54:15
34,Avda Antiguo Reino De Valencia,Regne de Valencia - Doctor Sumsi,39.46409008,-0.370052077,False,False,Open,Valence,17,11,6,12-11-2025,14:54:45
34,Malzeville,Square Waldstetten  en face du 6 rue Maurice Barrčs MALZEVILLE,48.707187,6.185524,False,False,Open,Nancy,15,9,6,12-11-2025,14:49:24
35,Europe,Rue du Capitaine Dreyfus angle Bd de l'Europe,47.75269194,7.346458858,False,False,Closed,Mulhouse,14,14,0,02-04-2025,17:23:03
35,Alameda De Hercules,ALAMEDA DE HERCULES - Aprox. Calle Peris Mencheta,37.400868,-5.993751,False,False,Open,Seville,20,10,10,12-11-2025,14:52:13
35,Jean V,Rue Pierre Louis AthEnas,47.21236856,-1.564972876,False,False,Open,Nantes,15,1,14,12-11-2025,14:56:49
35,Place Jeanne D'Arc,1 RUE RAYMOND IV,43.609602,1.446881,False,False,Open,Toulouse,25,23,0,12-11-2025,14:54:15
35,Mon Desert,Croisement rue Mon DEsert et Bd de l'American LEgion,48.684141,6.176525,False,False,Open,Nancy,15,14,0,12-11-2025,14:50:20
35,Gaston Diderich,GASTON DIDERICH - AVENUE GASTON DIDERICH,49.609904,6.106099,False,False,Open,Luxembourg,15,12,3,12-11-2025,14:54:55
35,Reine Astrid,035 -  REINE ASTRID,50.462037,4.856928,False,False,Open,Namur,15,7,8,12-11-2025,14:55:06
35,Vilniaus Vartai,A. Tum?no g.,54.69181762,25.26346218,False,False,Closed,Vilnius,12,0,0,12-11-2025,14:55:44
36,Musee De L'Auto,RUE DE LA MERTZAU  MULHOUSE,47.75986277,7.332262052,False,False,Open,Mulhouse,15,0,0,17-02-2025,18:32:02
36,Pzalosfueroscondetrenor,Plaza de los Fueros - Conde Trenor,39.47904012,-0.375527102,False,False,Open,Valence,25,22,3,12-11-2025,14:53:27
36,Saurupt,100 Avenue du GEnEral Leclerc,48.680516,6.181811,False,False,Open,Nancy,15,11,4,12-11-2025,14:54:47
36,Place Robert Schuman,5 PL ROBERT SCHUMAN,43.609622,1.449431,True,False,Open,Toulouse,19,17,1,12-11-2025,14:54:28
36,Avenida Torneo,AVENIDA TORNEO - Aprox. C/ Juan de Acre,37.40062,-5.998235,False,False,Open,Seville,20,20,0,12-11-2025,14:55:44
36,Place Saintjean ,Rue du Lombard 42 / Lombardstraat 42,50.845224,4.351484,False,False,Open,Bruxelles-Capitale,35,16,15,12-11-2025,14:56:55
36,Alger,"10, rue d'Alger",47.210549,-1.567368,False,False,Open,Nantes,15,15,0,12-11-2025,14:51:30
36,Jb Gelle,J.B. GELLE - RUE JEAN- BAPTISTE GELLE ( DEVANT N° 6 ),49.596838,6.140615,False,False,Open,Luxembourg,15,13,0,12-11-2025,14:55:10
36,Autobus? Stotis,Geležinkelio g. – Stoties g. sankryža (šalia Autobus? stoties),54.67059724,25.28283084,False,False,Closed,Vilnius,12,12,0,12-11-2025,14:56:13
37,Tunnel,CHATEAU ZU-RHEIN MULHOUSE,47.74329632,7.315494396,False,False,Closed,Mulhouse,12,12,0,27-03-2025,15:12:30
37,Poelaert,POELAERT - Place Poelaert / Poelaertplein 3,50.83795,4.353019,False,True,Open,Bruxelles-Capitale,25,8,16,12-11-2025,14:47:43
37,Jardiniers  Tiercelins,En face du 19 rue des Jardiniers,48.691291,6.190844,False,False,Open,Nancy,12,5,7,12-11-2025,14:50:06
37,Felix Eboue,"1, allEe de l'Île Gloriette",47.21146506,-1.556824537,False,False,Open,Nantes,27,10,16,12-11-2025,14:53:26
37,Stelucie  Arcs Stcyprien,53 RUE SAINTE-LUCIE,43.593516,1.430039,False,False,Open,Toulouse,18,14,4,12-11-2025,14:56:14
37,Gaulois,GAULOIS - RUE DES GAULOIS 11,49.60164,6.13736,False,False,Open,Luxembourg,15,12,0,12-11-2025,14:55:29
37,Avda Peris Y Valero,Peris y Valero - Luis Santángel,39.46090558,-0.366531327,False,False,Open,Valence,20,18,2,12-11-2025,14:55:12
38,Wanne,"RUE DE LA WANNE, angle RUE KOECHLIN",47.743132,7.352147,False,False,Closed,Mulhouse,10,10,0,28-03-2025,12:23:35
38,Plage Des,PLAGE DES 2 RIVES,48.692795,6.201486,False,False,Open,Nancy,12,0,0,15-09-2025,18:56:04
38,Jeu De Balle ,JEU DE BALLE/VOSSENPLEIN - RUE BLAES/BLAESSTRAAT 135-141,50.837912,4.347421,False,False,Open,Bruxelles-Capitale,19,6,11,12-11-2025,14:51:07
38,Ricordeau,Place Alexis-Ricordeau - ChaussEe de la Madeleine,47.21210846,-1.553049129,True,False,Open,Nantes,40,2,38,12-11-2025,14:54:10
38,Jaurčs  Bachelier,54 ALLEE JEAN JAURES,43.607222,1.451244,False,False,Open,Toulouse,31,27,3,12-11-2025,14:55:56
38,Calle De Inca Garcilaso,CALLE DE INCA GARCILASO - Aprox. C/ Juan Antonio de Vizarrón,37.39208148,-6.011051277,False,False,Open,Seville,40,4,34,12-11-2025,14:56:54
38,Helleg Geescht,HELLEG GEESCHT - PLATEAU SAINT ESPRIT,49.60771,6.13456,False,False,Open,Luxembourg,20,18,1,12-11-2025,14:56:18
38,Šilo Tiltas,Žirm?n? g. - Minties g. sankryža,54.705339,25.304181,False,False,Closed,Vilnius,18,0,0,12-11-2025,14:56:05
39,Porte De Riedisheim,"AVE DE RIEDISHEIM, angle RUE DE LA WANNE",47.746152,7.357114,True,False,Open,Mulhouse,14,14,0,19-02-2025,15:07:46
39,Hotel Des Monnaies ,Bd de Waterloo / Waterloolaan 96,50.834237,4.350732,False,False,Open,Bruxelles-Capitale,25,12,12,12-11-2025,14:49:41
39,Kraizgrennchen,KRAIZGRENNCHEN - SQUARE DE NEW- YORK,49.613316,6.117582,False,False,Open,Luxembourg,20,16,1,12-11-2025,14:53:18
39,Plaza San Antonio De Padua,PLAZA SAN ANTONIO DE PADUA - Aprox. C/ MarquEs de la Mina,37.39784002,-5.998504687,False,False,Open,Seville,20,15,3,12-11-2025,14:56:07
39,Quai Moncousu,"1, quai Moncousu - Pont Haudaudine",47.20940657,-1.555233145,False,False,Open,Nantes,24,10,14,12-11-2025,14:55:18
39,Place De Damloup,9 PL DE DAMLOUP,43.605855,1.452805,False,False,Open,Toulouse,19,19,0,12-11-2025,14:54:59
39,Šiaur?s Miestelis,Žirm?n? g. - Lukšio g. sankryža,54.711357,25.304238,False,False,Closed,Vilnius,18,0,0,12-11-2025,14:55:42
40,Gare De Dornach,RUE LEON JOUHAUX MULHOUSE,47.74649099,7.30843259,False,False,Closed,Mulhouse,15,15,0,26-03-2025,13:41:30
40,Callebarcasfrente Teatroprincipal,"Barcas, 11",39.4704341,-0.374915095,False,False,Open,Valence,26,11,15,12-11-2025,14:47:58
40,Ogmios Miestas,Lukšio g. (Ogmios miestas),54.712375,25.29664,False,False,Closed,Vilnius,27,0,0,12-11-2025,14:56:14
40,Glacis Kapell,GLACIS KAPELL - BOULEVARD DE LA FOIRE ( DEVANT N° 21 ),49.6147,6.1211,False,False,Open,Luxembourg,15,0,7,12-11-2025,14:54:15
40,Colombette  Maury,41 RUE DE LA COLOMBETTE,43.604565,1.453659,False,False,Open,Toulouse,16,10,6,12-11-2025,14:56:05
40,Madeleine,Quai Moncousu - Pont GEnEral Audibert,47.20880464,-1.550411914,False,False,Open,Nantes,21,5,15,12-11-2025,14:57:30
40,Avenida Reina Mercedes,AVENIDA REINA MERCEDES - Aprox. Glorieta Alcalde de Parias Merry,37.356388,-5.986555,False,False,Open,Seville,30,15,14,12-11-2025,14:56:50
40,Porte De Hal ,PORTE DE HAL/HALLEPOORT - BOULEVARD DU MIDI/ZUIDLAAN 142,50.833931,4.343155,False,False,Open,Bruxelles-Capitale,25,16,5,12-11-2025,14:51:53
41,Station Solaire,"Site KM0, 30 Rue François Spoerry
               Mulhouse",47.738964,7.328609,False,False,Open,Mulhouse,18,0,0,25-03-2025,14:33:58
41,Plaza Calderón De La Barca,PLAZA CALDERÓN DE LA BARCA - Aprox. C/ Amargura,37.39958252,-5.991029211,False,False,Open,Seville,15,13,2,12-11-2025,14:48:42
41,Saintroch ,SAINT-ROCH / SINT-ROCHUS - Chau. d'Anvers / Antwerpselaan 37,50.859302,4.35485,False,False,Open,Bruxelles-Capitale,24,10,12,12-11-2025,14:51:48
41,Place Laurent,PLACE LAURENT - PLACE AUGUSTE LAURENT,49.620066,6.122905,False,False,Open,Luxembourg,20,17,1,12-11-2025,14:57:03
41,Bruneličre,"88, quai de la Fosse",47.208905,-1.56823,False,False,Open,Nantes,18,17,1,12-11-2025,14:55:18
41,Riquet  Camichel,1 RUE CHARLES CAMICHEL,43.602708,1.454367,False,False,Open,Toulouse,21,1,20,12-11-2025,14:56:42
41,Avda Gral Urrutia,General Urrutia - Granada,39.45888006,-0.364867059,False,False,Open,Valence,20,14,6,12-11-2025,14:53:50
42,Gare Maritime,Quai Ernest Renaud - Place Jacksonville,47.20659773,-1.572610287,True,False,Open,Nantes,31,14,17,12-11-2025,14:52:49
42,Avda De La Plata,Av. de la Plata (Museo Fallero),39.45874906,-0.35874904,False,False,Open,Valence,20,11,7,12-11-2025,14:52:42
42,Escande  Dauriac,3 BD PR LEOPOLD ESCANDE / FACE ASSURANCE MALADIE HG,43.601607,1.456158,False,False,Open,Toulouse,20,3,17,12-11-2025,14:52:31
42,Square Andre,SQUARE ANDRE - SQUARE EDOUARD ANDRE ( DEVANT N° 1 ),49.6238,6.1188,False,False,Open,Luxembourg,20,10,6,12-11-2025,14:57:14
42,Plaza Cronista,PLAZA CRONISTA - Aprox. C/ Divina Pastora,37.398792,-5.989518,False,False,Open,Seville,15,14,0,12-11-2025,14:49:39
42,Porte De Ninove ,PORTE DE NINOVE / NINOOFSEPOORT - Pl. de Ninove x Bd de l'Abattoir / Ninoofseplein x Slachthuislaan,50.84851,4.338064,False,False,Open,Bruxelles-Capitale,25,14,11,12-11-2025,14:56:56
43,Machine De L'Ile,"2 bis, boulevard LEon Bureau",47.206727,-1.565034,True,False,Open,Nantes,36,7,29,12-11-2025,14:55:13
43,Stožice,Dunajska 186,46.086761,14.514151,False,False,Open,Ljubljana,20,4,16,12-11-2025,14:56:56
43,Joseph Ii ,JOSEPH II/JOZEF II - RUE JOSEPH II/JOZEF II-STRAAT,50.845256,4.374501,False,False,Open,Bruxelles-Capitale,25,0,23,12-11-2025,14:53:14
43,Ronda Capuchinos,RONDA CAPUCHINOS - Aprox. C/ Maestro Quiroga,37.399697,-5.983926,False,False,Open,Seville,12,12,0,12-11-2025,14:53:21
43,Lycee Technique De Bonnevoie,LYCEE TECHNIQUE DE BONNEVOIE - RUE DU CIMETIERE ( DEVANT N° 110 ),49.5911,6.1416,False,False,Open,Luxembourg,20,18,1,12-11-2025,14:52:51
43,Place Dupuy,14 PL DOMINIQUE MARTIN DUPUY,43.600188,1.454764,False,False,Open,Toulouse,22,19,2,12-11-2025,14:55:46
44,Charlemagne ,Rue de la Science / Wetenschapsstraat 11,50.841707,4.370986,False,False,Open,Bruxelles-Capitale,34,0,0,25-08-2025,13:26:20
44,Place Saintjacques,1 ALL FORAIN FRANCOIS VERDIER,43.597825,1.451609,False,False,Open,Toulouse,22,17,5,12-11-2025,14:52:51
44,Linhartova Cesta,Topniška 54,46.064546,14.518013,False,False,Open,Ljubljana,20,15,5,12-11-2025,14:56:38
44,Areler Strooss,ARELER STROOSS - RUE DES AUBEPINES ( FACE N° 187 ),49.6162,6.0984,False,False,Open,Luxembourg,20,8,10,12-11-2025,14:54:03
45,Šmartinska Cesta,Savska cesta 1,46.062475,14.524321,False,False,Open,Ljubljana,20,12,8,12-11-2025,14:48:05
45,Ozenne  Nazareth,10 RUE THEODORE OZENNE,43.596314,1.447081,False,False,Open,Toulouse,19,13,3,12-11-2025,14:53:16
45,Aubepines,AUBEPINES - VAL SAINTE CROIX / RUE DES AUBEPINES,49.61212,6.09749,False,False,Open,Luxembourg,20,9,6,12-11-2025,14:55:17
45,Prairie Au Duc,"25, boulevard de la Prairie au Duc",47.20478394,-1.558923109,False,False,Open,Nantes,13,6,7,12-11-2025,14:57:08
45,Stephanie ,STEPHANIE / STEFANIA - Av. Louise / Louizalaan 61A-63-65,50.83308,4.35743,False,False,Open,Bruxelles-Capitale,25,14,7,12-11-2025,14:56:11
46,Avda Instituto Obrero De Valencia,Pintor Luis Arcas - Inst. Obrero Valenciano,39.45547705,-0.358878039,False,False,Open,Valence,20,14,6,12-11-2025,14:47:59
46,Lonkecher Strooss,LONKECHER STROOSS - ROUTE DE LONGWY ( DEVANT N° 241 ),49.60563,6.10003,False,False,Open,Luxembourg,15,14,0,12-11-2025,14:54:37
46,Albertine ,ALBERTINE/ALBERTINA - BLD DE L'EMPEREUR/KEIZERSLAAN 3,50.843892,4.355012,False,False,Open,Bruxelles-Capitale,24,19,5,12-11-2025,14:57:19
46,Plaza Del Pelicano,PLAZA DEL PELICANO - Aprox. C/ Enladrilladas,37.397595,-5.983972,False,False,Open,Seville,16,10,6,12-11-2025,14:52:58
46,Place Des Carmes,1 PL DES CARMES,43.597364,1.445314,False,False,Open,Toulouse,20,10,10,12-11-2025,14:56:20
47,Leopold Goebel,LEOPOLD GOEBEL - ALLEE LEOPOLD GOEBEL ( DEVANT N° 109 ),49.6122,6.1072,False,False,Open,Luxembourg,20,17,3,12-11-2025,14:53:02
47,Jak?eva Ulica,Jak?eva ulica 37,46.053047,14.545125,False,False,Open,Ljubljana,19,4,15,12-11-2025,14:57:13
47,Languedoc  Nazareth,12 RUE DU LANGUEDOC,43.595247,1.445416,False,False,Open,Toulouse,30,25,4,12-11-2025,14:55:55
47,Avda Autopista Del Saler,Autopista del Saler - Puente Monteolivete,39.45648005,-0.35550903,False,False,Open,Valence,20,3,16,12-11-2025,14:48:06
47,Martyrs Nantais,"1, boulevard des Martyrs Nantais de la REsistance",47.206933,-1.548169,True,False,Open,Nantes,27,16,11,12-11-2025,14:52:45
47,Calle Hiniesta,CALLE HINIESTA - Aprox. Convento Santa Isabel,37.396481,-5.98737,False,False,Open,Seville,15,13,0,12-11-2025,14:54:16
47,Les Quais ,Quai ŕ la Chaux / Kalkkaai 1,50.854714,4.347151,False,False,Open,Bruxelles-Capitale,20,3,14,12-11-2025,14:57:28
48,Verdun,"15, rue de Verdun",47.21750537,-1.551849784,True,False,Open,Nantes,14,12,2,12-11-2025,14:48:18
48,Avda Antonio Ferrandis,Antonio Ferrandis - General Urrutia,39.45077514,-0.358643429,False,False,Open,Valence,20,15,4,12-11-2025,14:47:57
48,Calle Churruca,CALLE CHURRUCA - Aprox. C/ Gonzáles Cuadrado,37.396657,-5.989879,False,False,Open,Seville,15,15,0,12-11-2025,14:51:13
48,Place Du Salin,18 PL DU SALIN,43.594461,1.443822,False,False,Open,Toulouse,32,16,15,12-11-2025,14:57:22
48,Congres,Rue Royale / Koningstraat 140,50.849358,4.363589,False,True,Closed,Bruxelles-Capitale,23,14,9,12-11-2025,14:55:44
48,Bgl Bnp Paribas,BGL BNP PARIBAS  - RUE EDOUARD STEICHEN ( FACE N° 10 ),49.632179,6.174446,False,False,Open,Luxembourg,20,12,5,12-11-2025,14:56:35
49,Duchesse Anne,"2, place de la Duchesse Anne",47.2167,-1.547253,False,False,Closed,Nantes,15,0,0,12-11-2025,14:55:10
49,Willebroeck ,WILLEBROECK / WILLEBROEK - Quai de Willebroeck / Willebroekkaai 22,50.8615,4.351143,False,False,Open,Bruxelles-Capitale,25,22,1,12-11-2025,14:56:34
49,Place Du Pontneuf,DEVANT 12 PLACE DU PONT NEUF,43.599598,1.440942,False,False,Open,Toulouse,24,11,11,12-11-2025,14:56:33
49,Marguerites,MARGUERITES - RUE DES MARGUERITES ( FACE N° 105 A ),49.623837,6.160642,False,False,Open,Luxembourg,20,20,0,12-11-2025,14:56:32
50,Calle De Hernan Cortes,CALLE DE HERNAN CORTES - Aprox. C/ Eslava,37.39755451,-5.99669523,False,False,Open,Seville,17,0,0,01-07-2025,10:24:16
50,Hauriou  Garonnette,1 AV MAURICE HAURIOU,43.594359,1.44095,False,False,Open,Toulouse,23,21,1,12-11-2025,14:48:11
50,Ribaucourt,RIBAUCOURT - BLD LEOPOLD II / LEOPOLD II-LAAN 121-123,50.860862,4.339182,False,False,Open,Bruxelles-Capitale,25,1,24,12-11-2025,14:53:20
50,Château,"7, rue des Etats",47.2151497,-1.550226243,True,False,Open,Nantes,16,14,2,12-11-2025,14:55:18
50,Europaparlament,"EUROPAPARLAMENT - Rue LEon Hammes, prEs de l'arręt Europaparlament",49.620607,6.147885,False,False,Open,Luxembourg,20,1,17,12-11-2025,14:56:53
51,Duportal  Canal De Brienne,1 BD ARMAND DUPORTAL,43.605342,1.434081,False,False,Closed,Toulouse,17,0,0,10-09-2024,15:16:41
51,Pso De Las Moreras,Moreras (Oceanográfico),39.45215104,-0.347318003,False,False,Open,Valence,20,7,13,12-11-2025,14:55:59
51,Tabarly,"5, boulevard de Berlin",47.21419463,-1.529735886,False,False,Open,Nantes,20,2,17,12-11-2025,14:51:59
51,Sauerwiss,SAUERWISS - RUE ABBE FRANCOIS LASCOMBE ( DEVANT N° 54 ),49.594088,6.125123,False,False,Open,Luxembourg,20,20,0,12-11-2025,14:55:22
51,Midi Fonsny ,Rue d'Angleterre / Engelandstraat 2,50.835699,4.338826,False,False,Open,Bruxelles-Capitale,25,6,17,12-11-2025,14:57:33
52,Sainctelette,SAINCTELETTE - PLACE SAINCTELETTE/SAINCTELETTEPLEIN,50.859212,4.34551,False,False,Open,Bruxelles-Capitale,35,25,0,29-04-2024,15:57:09
52,Baco,"8, allEe Baco",47.21432752,-1.548750556,False,False,Open,Nantes,15,7,8,12-11-2025,14:52:18
52,Bei Der Auer,BEI DER AUER - RUE DE GASPERICH ( DEVANT N° 20 ),49.591404,6.125333,False,False,Open,Luxembourg,20,16,1,12-11-2025,14:56:19
52,Duportal  Raymond V,39 BD ARMAND DUPORTAL,43.608571,1.434762,False,False,Open,Toulouse,21,0,21,12-11-2025,14:55:22
52,Calle Del Inca Garcilaso,CALLE DEL INCA GARCILASO - Aprox. C/ Jerónimo de Aguilar,37.395333,-6.010115,False,False,Open,Seville,37,8,27,12-11-2025,14:55:35
53,Olivettes,"10, rue des Olivettes",47.21173639,-1.549886025,False,False,Open,Nantes,15,1,14,12-11-2025,14:51:11
53,Ludwig Van Beethoven,- LUDWIG VAN BEETHOVEN - RUE LUDWIG VAN BEETHOVEN ( DEVANT N° 45 ),49.59,6.1172,False,False,Open,Luxembourg,20,18,0,12-11-2025,14:54:00
53,Place Saintjulien,PLACE SAINT JULIEN,43.608639,1.436965,False,False,Open,Toulouse,25,0,23,12-11-2025,14:55:39
53,Gare Du Midi ,Rue Ernest Blerot / Ernest Blerotstraat 1,50.837499,4.335947,False,False,Open,Bruxelles-Capitale,40,28,9,12-11-2025,14:48:04
53,Calle Reyes Católicos,CALLE REYES CATÓLICOS - Aprox. C/ Gravina,37.38934148,-5.999605235,False,False,Open,Seville,17,16,1,12-11-2025,14:54:58
54,Paseo Alameda,Plaza de Europa,39.45974607,-0.352781023,False,False,Open,Valence,20,3,17,12-11-2025,14:52:30
54,Tour Et Taxis ,TOUR ET TAXIS / THURN & TAXIS - Rue Picard / Picardstraat 3,50.863445,4.34635,False,False,Open,Bruxelles-Capitale,39,21,15,12-11-2025,14:56:57
54,Chaîne  Tiercerettes,10 RUE DE LA CHAINE,43.608674,1.439461,False,False,Open,Toulouse,17,0,16,12-11-2025,14:56:30
54,Plaza San Juan De La Palma,PLAZA SAN JUAN DE LA PALMA - Aprox. iglesia,37.395199,-5.990869,False,False,Open,Seville,15,12,3,12-11-2025,14:56:37
54,Cloche D'Or,CLOCHE D'OR - RUE JEAN PIRET ( DEVANT N° 3 ),49.583377,6.115817,False,False,Open,Luxembourg,20,1,19,12-11-2025,14:57:09
54,Cite Internationale Des Congrčs,"2, rue de Jemmapes - 2, avenue Jean-Claude Bonduelle",47.21318009,-1.544952542,True,False,Open,Nantes,34,11,22,12-11-2025,14:56:39
55,Avda De Francia,Francia - Pintor Maella,39.45931107,-0.348777011,False,False,Open,Valence,25,0,24,12-11-2025,14:50:30
55,Calle De Maria Auxiliadora,CALLE DE MARIA AUXILIADORA - Aprox. C/ Gonzalo de Bilbao,37.3933185,-5.983766182,False,False,Open,Seville,15,11,4,12-11-2025,14:54:07
55,Stsernin  Gatienarnoult,2 RUE GATIEN ARNOULT,43.609022,1.441105,False,False,Open,Toulouse,15,3,12,12-11-2025,14:56:07
55,Schaarfen Eck,- SCHAARFEN ECK- RUE EMILE BIAN,49.58043,6.11465,False,False,Open,Luxembourg,20,9,9,12-11-2025,14:54:23
55,Botanique ,BOTANIQUE / KRUIDTUIN - Av. GalilEe / Galileelaan,50.853248,4.366188,False,True,Open,Bruxelles-Capitale,25,7,14,12-11-2025,14:54:52
56,Vincent Gache,"9, rue François Albert",47.20679862,-1.54177774,False,False,Open,Nantes,15,6,9,12-11-2025,14:52:18
56,Archimede ,ARCHIMEDE / ARCHIMEDES - RUE ARCHIMEDE/ARCHIMEDESSTRAAT 58-64,50.845817,4.383722,False,False,Open,Bruxelles-Capitale,25,18,3,12-11-2025,14:55:32
56,Saintsernin  Merly,1 RUE MERLY,43.609191,1.442749,False,False,Open,Toulouse,15,1,13,12-11-2025,14:55:25
56,Fischerhaff,FISCHERHAFF- RUE DE CESSANGE 177,49.5911,6.1057,False,False,Open,Luxembourg,25,24,1,12-11-2025,14:54:50
56,Plaza Jerónimo De Cordoba,PLAZA JERONIMO DE CORDOBA- Aprox. C/ Escuelas Pías,37.393017,-5.986861,False,False,Open,Seville,20,11,9,12-11-2025,14:55:54
57,Bouillon,BOUILLON - RUE DE BOUILLON / PARKING,49.60001,6.10826,False,False,Open,Luxembourg,35,19,14,12-11-2025,14:53:37
57,Gaetan Rondeau,"20, rue GaEtan Rondeau",47.20539613,-1.537581863,False,False,Open,Nantes,20,20,0,12-11-2025,14:53:00
57,Madou,MADOU - Av. des Arts / Kunstlaan 1 - 2,50.848712,4.369509,False,True,Open,Bruxelles-Capitale,24,0,23,12-11-2025,14:57:35
57,Arcole  Merly,15 RUE MERLY,43.6103,1.442975,False,False,Open,Toulouse,15,8,6,12-11-2025,14:55:57
57,Plaza Cristo De Burgos,PLAZA CRISTO DE BURGOS - Pza de San Pedro,37.392262,-5.989883,False,False,Open,Seville,15,9,5,12-11-2025,14:53:26
57,Calle Pintor Monleon,Alameda - Pintor Monleón,39.46444408,-0.358347042,False,False,Open,Valence,20,1,19,12-11-2025,14:55:02
58,Gare Du Nord ,GARE DU NORD/NOORDSTATION - PLACE DU NORD / NOORDPLAATS,50.859181,4.35942,False,False,Open,Bruxelles-Capitale,43,30,10,12-11-2025,14:55:33
58,Plaza De Espańa,Plaza Espańa,39.46618608,-0.381677113,False,False,Open,Valence,20,9,11,12-11-2025,14:52:17
58,Schluechthaus,SCHLUECHTHAUS - RUE DE L'ABATTOIR,49.60136,6.11581,False,False,Open,Luxembourg,20,9,0,12-11-2025,14:56:49
58,Arcole   Concorde,4 RUE DE LA CONCORDE,43.610663,1.443637,True,False,Open,Toulouse,25,24,1,12-11-2025,14:54:10
58,Plaza De La Encarnación,PLAZA DE LA ENCARNACIÓN - Aprox. C/ Santillana,37.3921748,-5.9910914,False,False,Open,Seville,20,8,12,12-11-2025,14:53:21
59,Avda De Baleares I,Baleares - Río Escalona,39.46305608,-0.35464003,False,False,Open,Valence,15,12,1,12-11-2025,14:47:58
59,Stade Saupin,"35, quai de Malakoff",47.213682,-1.540181,False,False,Open,Nantes,24,2,22,12-11-2025,14:54:48
59,St Hubert,ST HUBERT - RUE DE MERL 147 / RUE ST HUBERT,49.60289,6.09322,False,False,Open,Luxembourg,20,16,1,12-11-2025,14:57:27
59,Place Stjosse ,Rue Willems / Willemstraat 2,50.849681,4.375312,False,False,Open,Bruxelles-Capitale,24,0,20,12-11-2025,14:55:15
59,Avenida De La Palmera,AVENIDA DE LA PALMERA - Aprox. Avenida del Líbano,37.37123841,-5.989210188,False,False,Open,Seville,18,15,3,12-11-2025,14:56:44
59,Concorde  Printemps,61 RUE DE LA CONCORDE,43.613442,1.446395,False,False,Open,Toulouse,18,17,0,12-11-2025,14:56:25
60,Avdabaleares Ii,Baleares - Lebón,39.46219908,-0.351867022,False,False,Open,Valence,19,13,5,12-11-2025,14:48:07
60,Boch,BOCH - RUE J-F BOCH,49.61925,6.10842,False,False,Open,Luxembourg,20,14,3,12-11-2025,14:54:00
60,Saintlazare ,SAINT-LAZARE / SINT-LAZARUS - Bd Saint-Lazare / Sint-Lazaruslaan 5,50.857385,4.361858,False,False,Open,Bruxelles-Capitale,14,9,5,12-11-2025,14:57:16
60,Gare De Nantes Nord,27 boulevard Stalingrad,47.217212,-1.543517,True,False,Open,Nantes,40,40,0,12-11-2025,14:56:42
60,Plaza De La Concordia,PLAZA DE LA CONCORDIA - Aprox. C/ Teniente Borges,37.3939575,-5.996899229,False,False,Open,Seville,19,13,6,12-11-2025,14:51:00
60,Place Roquelaine,32 PL ROQUELAINE,43.612615,1.448286,False,False,Open,Toulouse,24,22,0,12-11-2025,14:56:41
61,Lieu Unique,"23, quai Ferdinand Favre",47.215394,-1.546825,False,False,Open,Nantes,15,7,8,12-11-2025,14:51:48
61,Matabiau Gare  Bonrepos,12 BD DE BONREPOS,43.611052,1.452593,True,False,Open,Toulouse,40,39,0,12-11-2025,14:54:29
61,Frieden,FRIEDEN - BVD PIERRE FRIEDEN,49.637327,6.164573,False,False,Open,Luxembourg,20,15,1,12-11-2025,14:56:22
61,Plaza Del Museo,PLAZA DEL MUSEO - Aprox. C/ Alfonso XII,37.392969,-5.999294,False,False,Open,Seville,20,11,8,12-11-2025,14:55:28
61,Vicente Vidal,Vicent Vidal - Pintor Maella,39.46126107,-0.347921009,False,False,Open,Valence,20,18,2,12-11-2025,14:53:40
61,Maelbeek ,MAELBEEK/MAALBEEK - CHAUSSEE D'ETTERBEEK/ETTERBEEKSESTEENWEG 15,50.843836,4.378002,False,False,Open,Bruxelles-Capitale,35,2,29,12-11-2025,14:56:58
62,Menorca,Menorca - Baleares,39.45977907,-0.342242992,False,False,Open,Valence,20,3,17,12-11-2025,14:48:40
62,Leydenbach,LEYDENBACH - RUE LEYDENBACH / RUE DES LABOURS,49.62915,6.173101,False,False,Open,Luxembourg,20,12,6,12-11-2025,14:55:40
62,Jaures  Bonrepos,81 ALLEE JEAN JAURES,43.609222,1.453542,False,False,Open,Toulouse,24,23,1,12-11-2025,14:56:36
62,Cortenbergh ,CORTENBERGH / KORTENBERG - AVENUE D'AUDERGHEM 1 - 9 /OUDERGHEMLAAN 1-9,50.84177,4.38418,False,False,Open,Bruxelles-Capitale,35,20,14,12-11-2025,14:57:37
62,Plaza De Armas,PLAZA DE ARMAS - Avda Torneo (estación de autobuses),37.391224,-6.003203,False,False,Open,Seville,39,17,22,12-11-2025,14:55:45
63,Avda Del Puerto I,Av Puerto 19 (Telefónica),39.46774709,-0.358505045,False,False,Open,Valence,20,7,0,12-11-2025,14:56:49
63,Labours,LABOURS - RUE DES LABOURS / BLD J.F.KENNEDY,49.6301,6.16843,False,False,Open,Luxembourg,20,0,18,12-11-2025,14:57:14
63,Jules Cesar ,JULES CESAR - AVENUE DE TERVUREN DEVANT / TERVURENLAAN VOOR 278,50.834705,4.421643,False,True,Open,Bruxelles-Capitale,20,9,11,12-11-2025,14:57:12
63,Calle San Pablo,CALLE SAN PABLO - Aprox. C/ BailEn,37.39045648,-5.998103231,False,False,Open,Seville,20,17,1,12-11-2025,14:49:17
63,Piscine Leo Lagrange,54 RUE DES SEPT TROUBADOURS,43.607468,1.454329,False,False,Open,Toulouse,22,17,4,12-11-2025,14:53:11
64,Avda Del Puerto Ii,Av. Puerto 61-63,39.46648609,-0.354286031,False,False,Open,Valence,20,19,1,12-11-2025,14:48:40
64,Peri  Mercadier,30 RUE GABRIEL PERI,43.606208,1.455005,False,False,Open,Toulouse,24,22,1,12-11-2025,14:50:55
64,Calle Cuesta De Rosario,CALLE CUESTA DE ROSARIO - Pza de la Pescadería,37.38985648,-5.991125206,False,False,Open,Seville,15,4,11,12-11-2025,14:53:39
64,Grenier,GRENIER - RUE EDOUARD GRENIER,49.59383,6.14327,False,False,Open,Luxembourg,20,19,0,12-11-2025,14:57:35
64,Veterinaires ,VETERINAIRES/VEEARTSEN - RUE DE FRANCE / FRANKRIJKSTRAAT,50.832749,4.331058,False,False,Open,Bruxelles-Capitale,25,2,19,12-11-2025,14:51:39
65,Calle Alhóndiga,CALLE ALHÓNDIGA - Aprox. Card. Cervantes,37.39129949,-5.988140196,False,False,Open,Seville,14,13,0,12-11-2025,14:51:19
65,Parvis De Stgilles ,Chau. de Waterloo / Waterloosesteenweg 65,50.829985,4.344557,False,False,Open,Bruxelles-Capitale,25,4,14,12-11-2025,14:52:02
65,Avda Del Puerto Iii,Av. Puerto - Doctor Manuel Candela,39.46548409,-0.350928021,False,False,Open,Valence,19,18,1,12-11-2025,14:56:44
65,Cours Sully,"9, cours Sully",47.22258734,-1.551666443,False,False,Open,Nantes,15,10,4,12-11-2025,14:56:34
65,Verdier  Grand Rond,2 ALL FORAIN FRANCOIS VERDIER,43.596904,1.452596,False,False,Open,Toulouse,27,16,10,12-11-2025,14:57:22
65,Bei Der Schoul,BEI DER SCHOUL - RUE FERDINAND KUHN,49.58421,6.14202,False,False,Open,Luxembourg,20,16,2,12-11-2025,14:56:18
66,Schuman,SCHUMAN - RUE DE LA LOI 170,50.843359,4.379946,False,True,Open,Bruxelles-Capitale,40,2,34,12-11-2025,14:51:19
66,Guillen De Anglesola,Guillem de Anglesola - Av. Puerto,39.46423908,-0.346352006,False,False,Open,Valence,25,23,1,12-11-2025,14:52:19
66,Chanzy,"Face au 23, avenue Chanzy",47.22542989,-1.547999926,False,False,Open,Nantes,15,14,1,12-11-2025,14:51:44
66,Beim Tennis,Rue des Scillas 55 / Banque de Luxembourg,49.579231,6.134018,False,False,Open,Luxembourg,20,13,3,12-11-2025,14:56:13
66,Calle Arroyo,CALLE ARROYO - Aprox. Avda. JosE Laguillo,37.3936255,-5.981869176,False,False,Open,Seville,20,9,7,12-11-2025,14:53:43
66,Jardin Royal,RUE DU 8 MAI 1945 / FACE JARDIN ROYAL,43.596419,1.45104,False,False,Open,Toulouse,23,22,0,12-11-2025,14:54:43
67,Mairie De Hesperange,MAIRIE DE HESPERANGE - ROUTE DE THIONVILLE 474,49.571924,6.15965,False,False,Open,Luxembourg,20,14,4,12-11-2025,14:55:30
67,Parc Cinquantenaire ,PARC CINQUANTENAIRE/JUBELPARK - AVENUE D'AUDERGHEM/OUDERGEMSESTEENWEG 45,50.83975,4.385426,False,True,Open,Bruxelles-Capitale,35,20,11,12-11-2025,14:56:06
67,Waldeck Rousseau,Place Waldeck Rousseau - Pont GEnEral de la Motte Rouge,47.22777476,-1.552147986,True,False,Open,Nantes,22,5,17,12-11-2025,14:54:36
67,Guesde  Ozenne,35 ALL JULES GUESDE,43.594812,1.449176,False,False,Open,Toulouse,22,7,15,12-11-2025,14:56:29
67,Juan Verdeguer,Juan Verdeguer - Toneleros,39.45882807,-0.336888975,False,False,Open,Valence,14,2,12,12-11-2025,14:55:00
68,Mulhouse,"48,797631
1,963525",47.761696,7.331624,True,False,Open,Jcdecauxbike,2,0,2,25-06-2024,12:27:01
68,Avda Del Puerto Iv,Av. Puerto - JosE Aguilar,39.46277108,-0.341823992,False,False,Open,Valence,20,13,5,12-11-2025,14:55:16
68,Calle Juan Antonio Cabestany,CALLE JUAN ANTONIO CABESTANY - Aprox. Calle Júpiter,37.39032,-5.97988,False,False,Open,Seville,15,5,10,12-11-2025,14:55:33
68,Palais De Justice  Metro,1 BIS ALLEE JULES GUESDE,43.592782,1.444726,True,False,Open,Toulouse,16,11,2,12-11-2025,14:56:40
68,Livet,"65, rue Dufour",47.22406788,-1.545212434,True,False,Open,Nantes,15,15,0,12-11-2025,14:53:59
68,Um Schlass,UM SCHLASS - CEINTURE UM SCHLASS,49.57337,6.14397,False,False,Open,Luxembourg,15,8,4,12-11-2025,14:56:30
68,Jean Rey,JEAN REY - PLACE JEAN REY/JEAN REYPLAATS,50.840282,4.380131,False,False,Open,Bruxelles-Capitale,33,8,24,12-11-2025,14:57:33
69,Avda Del Puerto,Av. Puerto - Serrería,39.46192008,-0.338811982,False,False,Open,Valence,25,7,18,12-11-2025,14:48:16
69,Feuga  Pont Stmichel,11 ALL PAUL FEUGA,43.592388,1.442463,False,False,Open,Toulouse,18,12,5,12-11-2025,14:48:35
69,Calle Jose Laguillo,CALLE JOSE LAGUILLO - Aprox. Pablo Iglesias,37.39212,-5.978636,False,False,Open,Seville,20,14,4,12-11-2025,14:50:44
69,Lesbroussart,LESBROUSSART - AVENUE LOUISE/LOUIZALAAN 192,50.827577,4.363797,False,True,Open,Bruxelles-Capitale,29,23,3,12-11-2025,14:53:46
69,Manufacture,"11 bis, boulevard Stalingrad",47.21921638,-1.535847443,False,False,Open,Nantes,15,9,6,12-11-2025,14:55:08
69,Um Reimerwee,UM REIMERWEE - RUE DU KIEM,49.61769,6.08276,False,False,Open,Luxembourg,20,18,2,12-11-2025,14:57:37
70,Callecolonesqalmiranterogerdelauria,"Colón, 44",39.469181,-0.371737,False,False,Open,Valence,17,15,2,12-11-2025,14:54:43
70,Aurore ,AURORE / DAGERAAD - Av. Louise / Louizalaan 440,50.818113,4.371446,False,True,Open,Bruxelles-Capitale,25,16,8,12-11-2025,14:54:58
70,Gare De Nantes Sud,Quai de Malakoff - Canal Saint-FElix,47.215505,-1.542844,True,False,Open,Nantes,70,59,9,12-11-2025,14:56:12
70,Place Du Fer A Cheval,5 PLACE DU FER A CHEVAL,43.592366,1.434121,False,False,Open,Toulouse,18,14,2,12-11-2025,14:51:59
70,Gemeng Stroossen,GEMENG STROOSSEN - Rue des Romains,49.61909,6.07227,False,False,Open,Luxembourg,20,15,3,12-11-2025,14:53:23
70,Estación Renfe Santa Justa,ESTACIÓN RENFE SANTA JUSTA,37.39115849,-5.975971154,False,False,Open,Seville,40,26,13,12-11-2025,14:56:39
71,Avenida Kansas City,AVENIDA KANSAS CITY - Aprox. Hotel Occidental,37.390019,-5.974472,False,False,Open,Seville,18,15,3,08-10-2025,13:48:28
71,Fer Ŕ Cheval  Cours Dillon,3 RUE LAGANNE,43.593227,1.435062,False,False,Open,Toulouse,22,9,12,12-11-2025,14:48:59
71,Talensac Nord,"18, rue Talensac - 26, rue de Bel Air",47.22185364,-1.558940747,False,False,Open,Nantes,14,14,0,12-11-2025,14:52:04
71,Avda Del Puerto Vi,Av. Puerto - Plaza Tribunal de les Aigües,39.46034808,-0.333621966,False,False,Open,Valence,20,2,18,12-11-2025,14:48:04
71,Legrand,LEGRAND - AV LOUISE/LOUIZALAAN 525,50.815019,4.371982,False,True,Open,Bruxelles-Capitale,22,10,7,12-11-2025,14:52:09
71,Les Thermes,LES THERMES - RUE DU CIMETIERE,49.61489,6.07275,False,False,Open,Luxembourg,20,17,2,12-11-2025,14:57:36
72,Ramiro Maetzu,Ramiro de Maeztu - Peris Brell,39.467225,-0.346537,False,False,Open,Valence,15,14,0,12-11-2025,14:50:05
72,Calle Amador De Los Rios,CALLE AMADOR DE LOS RIOS - Aprox. C/ Lope de Vega,37.39071249,-5.982768177,False,False,Open,Seville,20,9,11,12-11-2025,14:49:37
72,Fitte   Magne,23 ALL CHARLES DE FITTE,43.59522,1.432503,False,False,Open,Toulouse,20,9,7,12-11-2025,14:49:45
72,Bellamygue Moreau,"138, rue Paul Bellamy",47.22862569,-1.561806393,False,False,Open,Nantes,15,12,3,12-11-2025,14:52:56
72,An Der Bourmicht,- AN DER BOURMICHT - ZONE INDUSTRIELLE BOURMICHT / RES DES MEROVINGIENS,49.61086,6.08097,False,False,Open,Luxembourg,20,8,11,12-11-2025,14:57:30
72,Ulb Solbosch ,ULB SOLBOSCH / VUB SOLBOSCH - AV. F.ROOSEVELT/F.ROOSEVELTLAAN 19,50.812489,4.379203,False,True,Open,Bruxelles-Capitale,24,20,3,12-11-2025,14:55:34
73,Vleurgat,VLEURGAT - AVENUE LOUISE/LOUIZALAAN 300,50.823898,4.367752,False,True,Open,Bruxelles-Capitale,25,23,0,12-11-2025,14:48:32
73,Jeronimo Monsoriu,Jerónimo Monsoriu - Industria,39.46622709,-0.342969997,False,False,Open,Valence,20,17,3,12-11-2025,14:48:24
73,Plaza San Agustin,PLAZA SAN AGUSTIN - Aprox. C/ Concepción,37.38962,-5.984551,False,False,Open,Seville,15,15,0,12-11-2025,14:52:47
73,Fitte  Teinturiers,40 ALLEE CHARLES DE FITTE,43.596294,1.432158,False,False,Open,Toulouse,16,3,12,12-11-2025,14:56:50
73,Sarradin,"4, place Emile Sarradin",47.22088243,-1.570438598,False,False,Open,Nantes,13,5,8,12-11-2025,14:56:53
73,Jeanne D'Arc,- JEANNE D'ARC - PLACE JEANNE D'ARC,49.59691,6.147957,False,False,Open,Luxembourg,20,17,0,12-11-2025,14:55:37
74,Plaza San Felipe Neri,Plaza San Felipe Neri (Mercado Algirós),39.4699171,-0.353825032,False,False,Open,Valence,20,20,0,12-11-2025,14:48:00
74,Laganne  Teinturiers,37 RUE LAGANNE,43.596667,1.436229,False,False,Open,Toulouse,18,18,0,12-11-2025,14:52:50
74,Plaza Pilatos,PLAZA PILATOS - Aprox. C/ San Esteban,37.389756,-5.987023,False,False,Open,Seville,15,7,7,12-11-2025,14:56:02
74,Place Loix ,PLACE LOIX / LOIXPLEIN - Rue Berckmans / Berckmansstraat 78 - 84,50.831936,4.353037,False,False,Open,Bruxelles-Capitale,24,11,10,12-11-2025,14:51:58
74,Canclaux,"8, place Canclaux",47.21433366,-1.574924617,False,False,Open,Nantes,15,7,8,12-11-2025,14:55:13
74,Sainte Cunegonde,SAINTE CUNEGONDE - PLACE STE CUNEGONDE,49.6146,6.14283,False,False,Open,Luxembourg,15,11,1,12-11-2025,14:57:23
75,Plaza San Francisco,PLAZA SAN FRANCISCO - Aprox C/ Hernando Colón,37.388157,-5.993846,False,False,Open,Seville,20,15,5,12-11-2025,14:51:12
75,General Baron ,GENERAL BARON / GENERAAL BARON - Av. du Parc / Parklaan 51 - 55,50.825888,4.340388,False,False,Open,Bruxelles-Capitale,25,16,8,12-11-2025,14:52:21
75,Campoamor I,República Argentina - Campoamor,39.47208111,-0.351792027,False,False,Open,Valence,25,24,1,12-11-2025,14:52:27
75,Beinchen,BEINCHEN - RUE DU PONT,49.61561,6.13097,False,False,Open,Luxembourg,15,11,2,12-11-2025,14:54:30
75,Château D'Eau,12 PLACE LAGANNE,43.59859,1.436594,True,False,Open,Toulouse,21,13,8,12-11-2025,14:53:45
75,Lamoricičre,"14 bis, rue Lamoricičre - Place Beaumanoir",47.21230896,-1.57136936,False,False,Open,Nantes,15,9,6,12-11-2025,14:56:11
76,Campoamor Ii,Campoamor - Músico GinEs,39.4700511,-0.343552001,False,False,Open,Valence,19,16,2,12-11-2025,14:53:37
76,Place Van Meenen ,PLACE VAN MEENEN / VAN MEENENPLEIN - Av. Paul Dejaer (face 35 - 39) / Paul Dejaerlaan (tegenover 35 - 39),50.825749,4.345165,False,False,Open,Bruxelles-Capitale,25,19,2,12-11-2025,14:52:28
76,Plaza Nueva,PLAZA NUEVA - Aprox. C/ Jaen,37.38893948,-5.995646221,False,False,Open,Seville,30,13,17,12-11-2025,14:56:44
76,Rene Bouhier,"8, place RenE Bouhier",47.20942909,-1.570515336,False,False,Open,Nantes,15,15,0,12-11-2025,14:49:30
76,Sauvage,SAUVAGE - RUE JEAN-PIERRE SAUVAGE,49.62521,6.13938,False,False,Open,Luxembourg,15,13,0,12-11-2025,14:54:38
76,Reclusane  Place Olivier,"PLACE OLIVIER, DEVANT N°1 RUE  RECLUSANE",43.598478,1.434043,False,False,Open,Toulouse,16,1,13,12-11-2025,14:57:28
77,Ecole D'Architecture,"6, quai François Mitterrand",47.20760564,-1.557532468,True,False,Open,Nantes,32,12,20,12-11-2025,14:54:42
77,Plaza Chapina,PLAZA CHAPINA - Aprox. Hotel Abba Triana,37.38962948,-6.007581264,False,False,Open,Seville,20,4,14,12-11-2025,14:53:15
77,Funiculaire,Avenue J.F.Kennedy/Parvis au Plateau KB prEs de l'arręt Pafendall,49.618823,6.136324,False,False,Open,Luxembourg,20,18,1,12-11-2025,14:55:38
77,Stcyprien  Metro Vie,2 PL INTERIEURE SAINT-CYPRIEN,43.59778,1.431619,False,False,Open,Toulouse,13,1,11,12-11-2025,14:56:52
77,Paul Janson,PAUL JANSON - CHAUSSEE DE CHARLEROI/ CHARLEROISESTEENWEG 159,50.827399,4.355281,False,True,Open,Bruxelles-Capitale,25,21,4,12-11-2025,14:56:38
78,Avda Aragon I,AragOn - Vicente Sancho Tello,39.4699131,-0.358779047,False,False,Open,Valence,20,15,5,12-11-2025,14:48:05
78,De Gaulle,"7, rue Françoise Giroud - Boulevard GEnEral de Gaulle",47.20844368,-1.540514488,False,False,Open,Nantes,21,5,16,12-11-2025,14:54:10
78,Ducpetiaux,DUCPETIAUX - CHAUSSEE DE WATERLOO/ WATERLOOSESTEENWEG 376 - 370,50.823699,4.351623,False,False,Open,Bruxelles-Capitale,25,16,9,12-11-2025,14:50:35
78,Stcyprien  Metro Darre,14 PL INTERIEURE ST CYPRIEN,43.598124,1.431382,True,False,Open,Toulouse,17,2,14,12-11-2025,14:55:15
78,St Mathieu,Rue St.Mathieu/ prEs de l'arręt Pafendall,49.619061,6.1323,False,False,Open,Luxembourg,18,12,4,12-11-2025,14:56:24
78,Calle Alfareria,CALLE ALFARERIA - Aprox. Ronda de Triana,37.388646,-6.010352,False,False,Open,Seville,20,4,16,12-11-2025,14:55:53
79,Loi ,LOI/WET - RUE D'ARLON/STRAAT 120,50.84413,4.374871,False,False,Open,Bruxelles-Capitale,22,6,14,12-11-2025,14:56:00
79,Avda Aragon Ii,Aragón - Ernesto Ferrer,39.47274711,-0.357333044,False,False,Open,Valence,20,15,5,12-11-2025,14:55:57
79,Plaza De Las Mercedarias,PLAZA DE LAS MERCEDARIAS - Aprox. C/ Ibarra,37.388371,-5.986945,False,False,Open,Seville,10,8,2,12-11-2025,14:56:06
79,Malakoff,"15, quai de Malakoff",47.213395,-1.536954,False,False,Open,Nantes,15,0,15,12-11-2025,14:55:05
79,Viguerie   Lange,1 PL LANGE,43.601016,1.434129,False,False,Open,Toulouse,20,13,7,12-11-2025,14:57:10
80,Fitte  Varsi,89B ALLEE CHARLES DE FITTE,43.599637,1.429338,False,False,Open,Toulouse,22,0,21,12-11-2025,14:47:49
80,Amadeo Savoia,Amadeo de Saboya (frente Ayuntamiento),39.47371011,-0.362389059,False,False,Open,Valence,25,4,21,12-11-2025,14:57:06
80,Calle Luis Montoto,CALLE LUIS MONTOTO - Aprox. C/ Alberto Duero,37.38762748,-5.981027169,False,False,Open,Seville,19,18,0,12-11-2025,14:48:57
80,Ins,Rue du Fort Dumoulin/Rue de Trčves,49.612542,6.147918,False,False,Open,Luxembourg,20,12,6,12-11-2025,14:55:54
80,Ceres,"CERES - AV. F. ROOSEVELT/F. ROOSEVELTLAAN, 14",50.814852,4.376794,False,True,Open,Bruxelles-Capitale,20,15,5,12-11-2025,14:56:26
81,Doctor Fornos,Micer Mascó - Rodriguez Fornos,39.47509612,-0.361069056,False,False,Open,Valence,20,12,8,12-11-2025,14:55:25
81,Mangin,"Devant le 8, place Mangin",47.20095552,-1.545507251,False,False,Open,Nantes,14,9,5,12-11-2025,14:51:53
81,Jardin Raymond Vi,ALLEE CHARLES DE FITTE / FACE JARDIN RAYMOND VI,43.599797,1.429521,False,False,Open,Toulouse,33,23,10,12-11-2025,14:49:43
81,Pont Bockstael ,PONT BOCKSTAEL / BRUG BOCKSTAEL - Bd Emile Bockstael / Emile Bockstaellaan 5,50.870259,4.343195,False,False,Open,Bruxelles-Capitale,25,5,19,12-11-2025,14:57:33
81,Carmel,AllEe du Carmel/Rue Paul Albrecht face Police,49.62019,6.172682,False,False,Open,Luxembourg,20,10,7,12-11-2025,14:56:10
82,Pannenhuis,"PANNENHUIS - RUE CHARLES DEMEER/CHARLES DEMEERSTRAAT  71
FermEe pour travaux Stib",50.872811,4.341149,False,False,Open,Bruxelles-Capitale,20,0,0,28-02-2024,14:31:53
82,Sebilleau,"120, rue Dr Jules SEbilleau",47.20675751,-1.533118245,True,False,Open,Nantes,16,4,11,12-11-2025,14:53:09
82,Gare Centshamm,GARE CENTS-HAMM - RUE DES ALOUETTES / GARE DE CENTS-HAMM,49.614749,6.164772,False,False,Open,Luxembourg,20,16,3,12-11-2025,14:55:12
82,Guillendecastrotorresdequart,Guillem de Castro (Torres de Quart),39.47602411,-0.384005125,False,False,Open,Valence,15,12,2,12-11-2025,14:56:45
82,Sejourne  Pt Des Catalans,1 AV PAUL SEJOURNE,43.605804,1.428054,False,False,Open,Toulouse,21,5,15,12-11-2025,14:57:22
83,Avenida La Buhaira,AVENIDA LA BUHAIRA - Aprox. Avda Luis Montoto,37.38695548,-5.978051158,False,False,Open,Seville,20,4,14,12-11-2025,14:51:49
83,Simonis,SIMONIS / BD LEOPOLD II (DEVANT 282)/ LEOPOLD II-LAAN (N° 282),50.86284,4.33126,False,False,Open,Bruxelles-Capitale,29,9,19,12-11-2025,14:57:17
83,Sejourne  Amidonniers,2 AV PAUL SEJOURNE,43.605687,1.428225,False,False,Open,Toulouse,17,2,13,12-11-2025,14:57:25
83,Millerand,"9, boulevard Alexandre Millerand - 28, boulevard Georges Pompidou",47.20819965,-1.530180436,False,False,Open,Nantes,14,1,13,12-11-2025,14:54:22
83,Pza De La Legión Espańola,General Elio - Llano del Real,39.47755312,-0.367061076,False,False,Open,Valence,25,1,23,12-11-2025,14:57:35
83,Pulvermühl,Rue de Pulverműhl/Rue du Fort Dumoulin,49.608758,6.149591,False,False,Open,Luxembourg,20,8,7,12-11-2025,14:57:17
84,Sainteanne ,SAINTE-ANNE / SINT-ANNA - Rue de l'Eglise Sainte-Anne / Sint-Annakerkstraat 116,50.85896,4.330107,False,False,Open,Bruxelles-Capitale,20,7,13,12-11-2025,14:56:17
84,Bitbourg,Rue de Bitbourg devant n°20,49.61349,6.17066,False,False,Open,Luxembourg,20,20,0,12-11-2025,14:57:33
84,Region,Rue de la Loire - place Gaston Defferre,47.21074214,-1.525933452,False,False,Open,Nantes,22,14,7,12-11-2025,14:54:55
84,Calle Jose Maria Moreno Galvan,CALLE JOSE MARIA MORENO GALVAN - Aprox. C/ Juan Antonio Cabestany,37.387502,-5.982989,False,False,Open,Seville,20,3,16,12-11-2025,14:56:43
84,Serreriaesqpintor Ferrer Calatayud,"Serrería, 67",39.4670909,-0.3353167,False,False,Open,Valence,15,14,0,12-11-2025,14:48:11
84,Brienne  Manufacture,19T ALL DE BRIENNE,43.605381,1.432485,True,False,Open,Toulouse,24,0,24,12-11-2025,14:56:55
85,Avda Blasco Ibanez,Blasco IbaNez - Jaime Roig,39.47943213,-0.36480607,False,False,Open,Valence,23,3,19,12-11-2025,14:52:07
85,Paseo Catalina Ribera,PASEO CATALINA RIBERA - Frente a la Diputación Provincial,37.38535147,-5.986785188,False,False,Open,Seville,20,4,15,12-11-2025,14:54:58
85,Barcelone  Leclerc,2 BD DU MARECHAL LECLERC,43.606847,1.430615,False,False,Open,Toulouse,22,0,21,12-11-2025,14:56:55
85,Einstein,Rue Albert Einstein/Bd de Kockelscheuer,49.5842,6.1249,False,False,Open,Luxembourg,18,3,10,12-11-2025,14:56:34
85,Bel Air,"102, rue Paul Bellamy",47.22639443,-1.56002282,False,False,Open,Nantes,14,14,0,12-11-2025,14:56:53
85,Etangs Noirs ,ETANGS NOIRS / ZWARTE VIJVERS - Chau. de Gand / Gentsesteenweg 182,50.85726552,4.332368379,False,False,Open,Bruxelles-Capitale,25,9,15,12-11-2025,14:56:24
86,Maison Communale Jette ,Chau. de Wemmel / Wemmelsesteenweg 102,50.876195,4.324477,False,False,Open,Bruxelles-Capitale,25,15,9,12-11-2025,14:48:00
86,Avdagasparaguilaresqvicenteparra,Gaspar Aguilar - Vicente Parra,39.45520804,-0.391284136,False,False,Open,Valence,20,20,0,12-11-2025,14:47:56
86,Hauts Paves,Rue de Berry - Rue des Hauts PavEs,47.22547063,-1.567501843,False,False,Open,Nantes,16,4,12,12-11-2025,14:51:20
86,Pwc  Bd Kockelscheuer,Rue Gerhard Mercator n°2/Bd de Kockelscheuer,49.580242,6.120862,False,False,Open,Luxembourg,20,10,8,12-11-2025,14:54:43
86,Heraclčs  Bearnais,23 RUE DU BEARNAIS,43.608004,1.428585,False,False,Open,Toulouse,20,4,15,12-11-2025,14:54:57
87,Lascrosses  Leclerc,47 BD LASCROSSES,43.609277,1.432157,False,False,Open,Toulouse,25,0,23,12-11-2025,14:55:13
87,Anatole France,"41, rue Alexandre Dumas - Place Anatole France",47.22360482,-1.571373578,False,False,Open,Nantes,15,6,9,12-11-2025,14:53:44
87,Miroir ,MIROIR / SPIEGEL - Av. de Laeken (face 36) / Lakense Laan (tegenover 36),50.871391,4.323914,False,False,Open,Bruxelles-Capitale,25,15,10,12-11-2025,14:55:27
87,Nationalbibliotheik,NATIONALBIBLIOTHEIK - Bd. KONRAD ADENAUER (Immeuble Bibliothčque Nationale),49.629865,6.166252,False,False,Open,Luxembourg,20,4,11,12-11-2025,14:57:02
88,Woeste,WOESTE - AVENUE NOTRE DAME DE LOURDES / ONZE-LIEVE-VROUW VAN LOURDESLAAN,50.873354,4.334311,False,False,Open,Bruxelles-Capitale,25,11,14,12-11-2025,14:56:56
88,Serra,SERRA - AVENUE J.F. KENNEDY / CIRCUIT DE LA FOIRE (Arręt Luxexpo),49.63543913,6.176230928,False,False,Open,Luxembourg,30,8,14,12-11-2025,14:55:23
88,Mellinet,"1, boulevard Allard - Place GEnEral Mellinet",47.21150107,-1.577175414,False,False,Open,Nantes,15,13,2,12-11-2025,14:53:34
88,Lascrosses  Duportal,17T BD LASCROSSES,43.61009,1.434974,True,False,Open,Toulouse,25,1,23,12-11-2025,14:57:29
89,Calle Adriano,CALLE ADRIANO - Aprox. C/ Antonia Díaz,37.386448,-5.997597,False,False,Open,Seville,18,10,8,12-11-2025,14:49:23
89,Place Thorn,"Place Thorn/Bd Marcel Cahen ,50m avant rue BEatrix",49.60361,6.10278,False,False,Open,Luxembourg,20,18,0,12-11-2025,14:54:31
89,Saintaignan,"65, boulevard Saint-Aignan",47.20743864,-1.578689264,False,False,Open,Nantes,14,6,8,12-11-2025,14:55:09
89,Athenee De Jette ,ATHENEE DE JETTE / ATHENEUM VAN JETTE - Av. de Levis Mirepoix 100 / de Levis Mirepoixlaan 100,50.87119275,4.329924766,False,False,Open,Bruxelles-Capitale,25,10,15,12-11-2025,14:57:27
89,Compans Caffarelli Metro,1 ESP COMPANS-CAFFARELLI,43.611073,1.436704,False,False,Open,Toulouse,22,0,22,12-11-2025,14:56:36
90,Broustin,BROUSTIN - AV DE JETTE/ JETSELAAN 73 - 81,50.867448,4.326807,False,False,Open,Bruxelles-Capitale,17,11,6,12-11-2025,14:48:26
90,Lascrosses  Arnaud Bernard,3B BD LASCROSSES,43.611271,1.438093,False,False,Open,Toulouse,25,16,8,12-11-2025,14:57:07
90,Huberty,Rue de Mühlenbach/Rue Jean-Pierre Huberty,49.62947016,6.11780414,False,False,Open,Luxembourg,20,19,1,12-11-2025,14:53:25
90,Calle Roma,CALLE ROMA - Aprox. C/ Palos de la Frontera,37.38119845,-5.993528209,False,False,Open,Seville,20,1,18,12-11-2025,14:57:37
90,Proce,Angle boulevard Gaston Serpette - Boulevard Auguste Pageot,47.22419506,-1.576612844,False,False,Open,Nantes,15,8,7,12-11-2025,14:55:53
91,Arcole  Balance,48 BD D'ARCOLE,43.611556,1.439662,False,False,Open,Toulouse,21,19,2,12-11-2025,14:52:58
91,Belgica,Place Werrie / Werrieplein 24,50.867773,4.335217,False,False,Open,Bruxelles-Capitale,25,17,6,12-11-2025,14:49:19
91,Callegrabadorjordan,Grabador Jordan - Escultor Pastor,39.44409301,-0.367664059,False,False,Open,Valence,15,3,12,12-11-2025,14:48:00
91,Rond Point De Vannes,"65, boulevard Lelasseur",47.22958061,-1.572114578,False,False,Open,Nantes,15,13,2,12-11-2025,14:52:10
91,Mersch,Rue de Mühlenbach/ Rue Jules Mersch,49.627834,6.122333,False,False,Open,Luxembourg,20,16,2,12-11-2025,14:54:56
91,Calle Procurador,CALLE PROCURADOR - Clara de Jesús Monteto,37.38690746,-6.007674262,False,False,Open,Seville,20,8,11,12-11-2025,14:57:28
92,Rond Point De Rennes,Angle boulevard Lelasseur - Rue Paul Bellamy,47.23302818,-1.566059069,True,False,Open,Nantes,14,13,1,12-11-2025,14:53:03
92,Ronda De Triana,RONDA DE TRIANA - Aprox. C/ de Manuel Arellano,37.38554,-6.011086,False,False,Open,Seville,20,10,10,12-11-2025,14:51:56
92,Brill,Rue des Prunelles/Bd du Brill,49.58914,6.099213,False,False,Open,Luxembourg,20,15,3,12-11-2025,14:55:58
92,"Avda De Aragon,",Blasco Ibańez - Aragón,39.47582812,-0.356059042,False,False,Open,Valence,20,9,11,12-11-2025,14:56:00
92,Lenoir,LENOIR - BLD DE SMET DE NAEYER/DE SMET DE NAEYERLAAN 187 - 189,50.875826,4.329921,False,False,Open,Bruxelles-Capitale,24,10,12,12-11-2025,14:50:42
